"stop_id","stop_code","stop_name","stop_desc","stop_lat","stop_lon","zone_id","stop_url","location_type","parent_station"
"100580","0","US 42 at Lacresta - In","","38.982632","-84.645059","Transit Authority of Northern Kentucky","","0",""
"100340","0","Turfway at Burlington - In","","39.010458","-84.627467","Transit Authority of Northern Kentucky","","0",""
"HOMMAN","0","Home at Main Out","","39.080062","-84.48759","Transit Authority of Northern Kentucky","","0",""
"10657","0","Monmouth and 16th - Out","","39.0838","-84.4841","Transit Authority of Northern Kentucky","","0",""
"30024","0","Royal at Grace - Out","","39.045445","-84.573366","Transit Authority of Northern Kentucky","","0",""
"10656","0","Clover Ridge at Capri - In","","39.09603","-84.455139","Transit Authority of Northern Kentucky","","0",""
"30023","0","E 4th at Monmouth - In","","39.093134","-84.494787","Transit Authority of Northern Kentucky","","0",""
"10658","0","Rossford at Wesly Hills - In","","39.097047","-84.451694","Transit Authority of Northern Kentucky","","0",""
"10651","0","Clover Ridge at Memorial - Out","","39.091235","-84.456956","Transit Authority of Northern Kentucky","","0",""
"100575","0","US 42 at Sycamore - In","","38.982116","-84.647612","Transit Authority of Northern Kentucky","","0",""
"10650","0","Memorial at Wessex - In","","39.091473","-84.461321","Transit Authority of Northern Kentucky","","0",""
"10653","0","Clover Rdg at Winding Way - Ou","","39.093067","-84.457332","Transit Authority of Northern Kentucky","","0",""
"100335","0","Steeple Chase at Turfway - In","","39.014968","-84.631301","Transit Authority of Northern Kentucky","","0",""
"10652","0","Clover Ridge at Memorial - In","","39.091082","-84.457061","Transit Authority of Northern Kentucky","","0",""
"10655","0","Clover Ridge at Capri - Out","","39.095509","-84.455602","Transit Authority of Northern Kentucky","","0",""
"10654","0","Clover Rdg at Winding Way - In","","39.093116","-84.457424","Transit Authority of Northern Kentucky","","0",""
"30029","0","S Loop at Medical Village - Out","","39.009545","-84.56406","Transit Authority of Northern Kentucky","","0",""
"100590","0","Industrial at Safeway - In","","38.986437","-84.635939","Transit Authority of Northern Kentucky","","0",""
"100350","0","Turfway at Lloyd - In","","39.008756","-84.624151","Transit Authority of Northern Kentucky","","0",""
"100110","0","Dixie at Fortside - Out","","39.056694","-84.545683","Transit Authority of Northern Kentucky","","0",""
"10668","0","Alexandria at Dexter - Out","","39.076185","-84.477681","Transit Authority of Northern Kentucky","","0",""
"10667","0","Monmouth at Carroll - In","","39.077595","-84.478925","Transit Authority of Northern Kentucky","","0",""
"30015","0","Highland at Ft Thomas - Out","","39.078263","-84.449451","Transit Authority of Northern Kentucky","","0",""
"2","0","Fifth and Main Cincinnati - Out","","39.101463","-84.509929","Transit Authority of Northern Kentucky","","0",""
"10669","0","Alexandria at Dexter - In","","39.076523","-84.477753","Transit Authority of Northern Kentucky","","0",""
"3","0","Walnut at Freedom Way â€“ OUT","","39.096859","-84.510329","Transit Authority of Northern Kentucky","","0",""
"4","0","Dave Cowens at Linden Out","","39.099281","-84.491205","Transit Authority of Northern Kentucky","","0",""
"5","0","Dave Cowens at Park In","","39.098182","-84.492919","Transit Authority of Northern Kentucky","","0",""
"6","0","Dave Cowens at Linden In","","39.099982","-84.490843","Transit Authority of Northern Kentucky","","0",""
"7","0","Dave Cowens at Riviera Out","","39.101517","-84.488793","Transit Authority of Northern Kentucky","","0",""
"100100","0","Sycamore St - 4th St. Cincinnat","","39.100704","-84.507843","Transit Authority of Northern Kentucky","","0",""
"8","0","Dave Cowens at Riverboat Row In","","39.101738","-84.488926","Transit Authority of Northern Kentucky","","0",""
"100101","0","Dixie at Sleepy Hollow - Out","","39.063303","-84.537985","Transit Authority of Northern Kentucky","","0",""
"100585","0","US 42 at Freedom Way - In","","38.987496","-84.639297","Transit Authority of Northern Kentucky","","0",""
"9","0","Houston Rd. at Citi -Out","","39.024861","-84.622865","Transit Authority of Northern Kentucky","","0",""
"10662","0","Monmouth at 19th - In","","39.079965","-84.481175","Transit Authority of Northern Kentucky","","0",""
"10661","0","Monmouth at 19th - Out","","39.079617","-84.481118","Transit Authority of Northern Kentucky","","0",""
"100345","0","Turfway at Crown Court - In","","39.009401","-84.625259","Transit Authority of Northern Kentucky","","0",""
"10664","0","Zott at Monmouth - Out","","39.078553","-84.480182","Transit Authority of Northern Kentucky","","0",""
"30016","0","Newport Shopping Center - Out","","39.08316","-84.480334","Transit Authority of Northern Kentucky","","0",""
"10663","0","Monmouth at New Linden - In","","39.079281","-84.480604","Transit Authority of Northern Kentucky","","0",""
"100105","0","Dixie at Ashwood - Out","","39.060345","-84.540722","Transit Authority of Northern Kentucky","","0",""
"10666","0","Monmouth at Carroll - Out","","39.077374","-84.478855","Transit Authority of Northern Kentucky","","0",""
"10665","0","Monmouth at 21st - In","","39.078286","-84.479713","Transit Authority of Northern Kentucky","","0",""
"809","0","E 5th at Lawrence - Out","","39.102193","-84.505581","Transit Authority of Northern Kentucky","","0",""
"100560","0","Florence Hub P and R - In-Out","","38.987614","-84.649556","Transit Authority of Northern Kentucky","","0",""
"10635","0","Boone at E 10th - In","","39.089294","-84.485274","Transit Authority of Northern Kentucky","","0",""
"30001","0","Crosby at Megellan - Out","","39.027577","-84.517543","Transit Authority of Northern Kentucky","","0",""
"10634","0","Boone at E 10th - Out","","39.089102","-84.485267","Transit Authority of Northern Kentucky","","0",""
"10637","0","E 10th at Arnold Aly - In","","39.089831","-84.484261","Transit Authority of Northern Kentucky","","0",""
"10636","0","E 10th at Park - Out","","39.090125","-84.483507","Transit Authority of Northern Kentucky","","0",""
"10639","0","E 10th at N Grand - Out","","39.092519","-84.480776","Transit Authority of Northern Kentucky","","0",""
"10638","0","E 10th at Vine - Out","","39.091191","-84.482559","Transit Authority of Northern Kentucky","","0",""
"811","0","Broadway at E 2nd St - Out","","39.099114","-84.505398","Transit Authority of Northern Kentucky","","0",""
"100310","0","Spiral at Meijer - In","","39.010821","-84.640192","Transit Authority of Northern Kentucky","","0",""
"10631","0","10th at Washington - In","","39.088594","-84.486623","Transit Authority of Northern Kentucky","","0",""
"10630","0","Washington at 10th - Out","","39.088685","-84.486998","Transit Authority of Northern Kentucky","","0",""
"30008","0","Mt Zion Park and Ride - In","","38.9555","-84.6283","Transit Authority of Northern Kentucky","","0",""
"817","0","26th at Madison - Out","","39.05948","-84.502754","Transit Authority of Northern Kentucky","","0",""
"100315","0","3999 Spiral - In","","39.014319","-84.642289","Transit Authority of Northern Kentucky","","0",""
"100570","0","8125 Mall Road - In","","38.983693","-84.650423","Transit Authority of Northern Kentucky","","0",""
"100330","0","StElizabeth Florence - In","","39.015822","-84.629539","Transit Authority of Northern Kentucky","","0",""
"10646","0","Scenic View at Rock Hill - In","","39.095533","-84.466066","Transit Authority of Northern Kentucky","","0",""
"10645","0","Memorial at Taylor - In","","39.095945","-84.472503","Transit Authority of Northern Kentucky","","0",""
"10648","0","Memorial at Wessex - Out","","39.092381","-84.46187","Transit Authority of Northern Kentucky","","0",""
"10647","0","Scenic View at Rock Hill - Out","","39.095312","-84.465629","Transit Authority of Northern Kentucky","","0",""
"10649","0","Memorial at Oakwood - In","","39.093841","-84.461751","Transit Authority of Northern Kentucky","","0",""
"820","0","Holmes High School - Out","","39.060798","-84.504077","Transit Authority of Northern Kentucky","","0",""
"100320","0","16 Spiral Drive - In","","39.017595","-84.641626","Transit Authority of Northern Kentucky","","0",""
"823","0","Madison at Catalpa - Out","","39.062318","-84.504773","Transit Authority of Northern Kentucky","","0",""
"10640","0","E 10th at N Grand - In","","39.092771","-84.480696","Transit Authority of Northern Kentucky","","0",""
"825","0","Madison at E 24th - Out","","39.063239","-84.505019","Transit Authority of Northern Kentucky","","0",""
"826","0","Scott St at Wallace - Out","","39.065612","-84.503889","Transit Authority of Northern Kentucky","","0",""
"10642","0","Memorial at Wilson - In","","39.092915","-84.475151","Transit Authority of Northern Kentucky","","0",""
"10641","0","Memorial at Wilson - Out","","39.093036","-84.474848","Transit Authority of Northern Kentucky","","0",""
"100325","0","Hansel at Richman - In","","39.018648","-84.634034","Transit Authority of Northern Kentucky","","0",""
"10644","0","123 Memorial - In","","39.094141","-84.474428","Transit Authority of Northern Kentucky","","0",""
"829","0","Madison at Wallace - Out","","39.065605","-84.505589","Transit Authority of Northern Kentucky","","0",""
"10643","0","118 Memorial - Out","","39.093902","-84.474449","Transit Authority of Northern Kentucky","","0",""
"100380","0","Dixie at Garvey - In","","39.013485","-84.605439","Transit Authority of Northern Kentucky","","0",""
"100140","0","Dixie at West Lakeside - Out","","39.034024","-84.565614","Transit Authority of Northern Kentucky","","0",""
"100385","0","Dixie at Stevenson - In","","39.016886","-84.599851","Transit Authority of Northern Kentucky","","0",""
"ELESAR","0","11th at Saratoga","","39.086604","-84.486795","Transit Authority of Northern Kentucky","","0",""
"229MAN","0","229 Main In","","39.077382","-84.490656","Transit Authority of Northern Kentucky","","0",""
"10613","0","E 6th at Washington - In","","39.093158","-84.490704","Transit Authority of Northern Kentucky","","0",""
"30222","0","2nd at Benham - In","","39.116476","-84.462984","Transit Authority of Northern Kentucky","","0",""
"10612","0","E 6th at Washington - Out","","39.092902","-84.490892","Transit Authority of Northern Kentucky","","0",""
"10615","0","E 6th at Overton - Out","","39.09355","-84.489782","Transit Authority of Northern Kentucky","","0",""
"10614","0","E 6th at Overton - In","","39.093735","-84.48965","Transit Authority of Northern Kentucky","","0",""
"30223","0","York at 3rd - Out","","39.093105","-84.497096","Transit Authority of Northern Kentucky","","0",""
"10617","0","E 6th at Monroe - In","","39.094135","-84.48892","Transit Authority of Northern Kentucky","","0",""
"830","0","W 19th at Howell - In","","39.065677","-84.512004","Transit Authority of Northern Kentucky","","0",""
"10616","0","E 6th at Monroe - Out","","39.094022","-84.488885","Transit Authority of Northern Kentucky","","0",""
"831","0","W 19th at Howell - Out","","39.065795","-84.511925","Transit Authority of Northern Kentucky","","0",""
"10619","0","E 6th at Park - In","","39.094728","-84.487849","Transit Authority of Northern Kentucky","","0",""
"30220","0","Dolwick at Appomatox - Out","","39.050737","-84.620702","Transit Authority of Northern Kentucky","","0",""
"832","0","Franklin at Highland - In","","39.065081","-84.514554","Transit Authority of Northern Kentucky","","0",""
"10618","0","E 6th at Park - Out","","39.09453","-84.487954","Transit Authority of Northern Kentucky","","0",""
"833","0","Highland Pike at Franklin - Out","","39.065195","-84.514537","Transit Authority of Northern Kentucky","","0",""
"100375","0","Dixie at Forest - In","","39.011938","-84.607324","Transit Authority of Northern Kentucky","","0",""
"834","0","Highland Pike at Benton - Out","","39.064504","-84.5162","Transit Authority of Northern Kentucky","","0",""
"100135","0","Dixie at Buttermilk - Out","","39.036264","-84.561151","Transit Authority of Northern Kentucky","","0",""
"835","0","Highland at Benton - In","","39.064338","-84.516407","Transit Authority of Northern Kentucky","","0",""
"836","0","Highland at Rays - Out","","39.063249","-84.520878","Transit Authority of Northern Kentucky","","0",""
"837","0","Highland at Rays - In","","39.063188","-84.520713","Transit Authority of Northern Kentucky","","0",""
"30226","0","Kenton County Detention Center","","39.003054","-84.531243","Transit Authority of Northern Kentucky","","0",""
"838","0","Emery at Highland - Out","","39.060816","-84.52316","Transit Authority of Northern Kentucky","","0",""
"839","0","Highland at Emery - In","","39.060761","-84.523002","Transit Authority of Northern Kentucky","","0",""
"10611","0","E 6th at Saratoga - In","","39.092365","-84.492096","Transit Authority of Northern Kentucky","","0",""
"10610","0","E 6th at Saratoga - Out","","39.09214","-84.492233","Transit Authority of Northern Kentucky","","0",""
"100390","0","Dixie at Hallem - In","","39.017891","-84.597581","Transit Authority of Northern Kentucky","","0",""
"100150","0","Dixie at Lane - Out","","39.031773","-84.570541","Transit Authority of Northern Kentucky","","0",""
"100395","0","3133 Dixie Highway - In","","39.020144","-84.592325","Transit Authority of Northern Kentucky","","0",""
"10624","0","E 6th at Oak - Out","","39.096056","-84.485296","Transit Authority of Northern Kentucky","","0",""
"30211","0","Convergys - In - Out","","39.043199","-84.610541","Transit Authority of Northern Kentucky","","0",""
"10623","0","E 6th at Linden - In","","39.095712","-84.486076","Transit Authority of Northern Kentucky","","0",""
"10626","0","8th at Washington - Out","","39.090875","-84.488983","Transit Authority of Northern Kentucky","","0",""
"10625","0","E 6th at Oak - In","","39.096216","-84.485189","Transit Authority of Northern Kentucky","","0",""
"10628","0","Holy Trinity High School - Out","","39.1041","-84.4822","Transit Authority of Northern Kentucky","","0",""
"840","0","Highland at Henry Clay - Out","","39.0592","-84.523231","Transit Authority of Northern Kentucky","","0",""
"841","0","929 Highland - In","","39.059388","-84.523066","Transit Authority of Northern Kentucky","","0",""
"600","0","S Ft Thomas at Warren - Out","","39.060968","-84.450101","Transit Authority of Northern Kentucky","","0",""
"601","0","S Ft Thomas at Warren - In","","39.0613","-84.449957","Transit Authority of Northern Kentucky","","0",""
"10629","0","Washington at E 8th - In","","39.090741","-84.488665","Transit Authority of Northern Kentucky","","0",""
"602","0","Brentwood at S Ft Thomas - Out","","39.062137","-84.448459","Transit Authority of Northern Kentucky","","0",""
"30219","0","NorthBend Park and Ride - In","","39.093458","-84.714449","Transit Authority of Northern Kentucky","","0",""
"603","0","S Ft Thomas at Grandview - In","","39.062053","-84.448807","Transit Authority of Northern Kentucky","","0",""
"100145","0","Dixie at Hudson - Out","","39.033067","-84.567663","Transit Authority of Northern Kentucky","","0",""
"605","0","Southview at S Ft Thomas - In","","39.063137","-84.448333","Transit Authority of Northern Kentucky","","0",""
"10620","0","E 6th at Maple - Out","","39.095041","-84.487066","Transit Authority of Northern Kentucky","","0",""
"607","0","S Ft Thomas at Midway - In","","39.065158","-84.446346","Transit Authority of Northern Kentucky","","0",""
"30214","0","Alexandria at Enzweiler - In","","38.97923","-84.393664","Transit Authority of Northern Kentucky","","0",""
"608","0","Pearson at S Ft Thomas - Out","","39.067616","-84.447088","Transit Authority of Northern Kentucky","","0",""
"10622","0","E 6th at Linden - Out","","39.095553","-84.486189","Transit Authority of Northern Kentucky","","0",""
"30217","0","S Main at High - In","","38.864935","-84.610501","Transit Authority of Northern Kentucky","","0",""
"30216","0","E Southern at Huntington - Out","","39.04741","-84.498471","Transit Authority of Northern Kentucky","","0",""
"609","0","S Ft Thomas at Tower Pl - In","","39.067393","-84.44715","Transit Authority of Northern Kentucky","","0",""
"10621","0","E 6th at Maple - In","","39.095221","-84.486969","Transit Authority of Northern Kentucky","","0",""
"100360","0","Dixie at Eastern - In","","39.006324","-84.614218","Transit Authority of Northern Kentucky","","0",""
"100120","0","Dixie at Highland Cemetery - Out","","39.046858","-84.552329","Transit Authority of Northern Kentucky","","0",""
"30200","0","Mineola at Jamike - In","","39.043598","-84.630698","Transit Authority of Northern Kentucky","","0",""
"30202","0","Interstate at 1017 - Out","","39.055679","-84.621642","Transit Authority of Northern Kentucky","","0",""
"25085","0","Winston at 38th - In","","39.046257","-84.503772","Transit Authority of Northern Kentucky","","0",""
"30201","0","Mineola at Jamike - Out","","39.04363","-84.630551","Transit Authority of Northern Kentucky","","0",""
"852","0","Highland at Wrights Point - Out","","39.054391","-84.528451","Transit Authority of Northern Kentucky","","0",""
"610","0","S Ft Thomas at S Crescent - Out","","39.06876","-84.447464","Transit Authority of Northern Kentucky","","0",""
"611","0","S Ft Thomas at S Crescent - In","","39.068674","-84.447575","Transit Authority of Northern Kentucky","","0",""
"612","0","S Ft Thomas at N Crescent - In","","39.069886","-84.447928","Transit Authority of Northern Kentucky","","0",""
"613","0","S Ft Thomas at N Crescent - Out","","39.070117","-84.44783","Transit Authority of Northern Kentucky","","0",""
"100595","0","Industrial at Carole - In","","38.982764","-84.633998","Transit Authority of Northern Kentucky","","0",""
"614","0","S Ft Thomas at Lockwood - Out","","39.070708","-84.446785","Transit Authority of Northern Kentucky","","0",""
"30207","0","Jamike at Mineola - In","","39.047113","-84.634461","Transit Authority of Northern Kentucky","","0",""
"857","0","Monte at Vivian - Out","","39.055726","-84.519684","Transit Authority of Northern Kentucky","","0",""
"615","0","S Ft Thomas at Lockwood - In","","39.070772","-84.447091","Transit Authority of Northern Kentucky","","0",""
"100355","0","Dixie atTurfway - In","","39.004345","-84.620218","Transit Authority of Northern Kentucky","","0",""
"858","0","Monte at Janes - In","","39.055906","-84.519537","Transit Authority of Northern Kentucky","","0",""
"616","0","S Ft Thomas at Bivouac - Out","","39.07107","-84.445838","Transit Authority of Northern Kentucky","","0",""
"30209","0","Alexandria at Marian - Out","","39.021634","-84.439965","Transit Authority of Northern Kentucky","","0",""
"25080","0","Winston at 39th - In","","39.045327","-84.504235","Transit Authority of Northern Kentucky","","0",""
"859","0","Monte at Rose - Out","","39.056558","-84.518231","Transit Authority of Northern Kentucky","","0",""
"617","0","S Ft Thomas at Rossmore - In","","39.071181","-84.446034","Transit Authority of Northern Kentucky","","0",""
"100115","0","Dixie at Fort Mitchell - Out","","39.053656","-84.549733","Transit Authority of Northern Kentucky","","0",""
"618","0","E Villa Pl at S Ft Thomas - Out","","39.072729","-84.446381","Transit Authority of Northern Kentucky","","0",""
"30203","0","Dolwick at 1017 - In","","39.055718","-84.621074","Transit Authority of Northern Kentucky","","0",""
"619","0","S Ft Thomas at E Villa - In","","39.07271","-84.44662","Transit Authority of Northern Kentucky","","0",""
"30206","0","Jamike at Mineola - In","","39.047038","-84.634122","Transit Authority of Northern Kentucky","","0",""
"100370","0","Dixie at Main - In","","39.010277","-84.609312","Transit Authority of Northern Kentucky","","0",""
"100130","0","Dixie at Pleasant Ridge - Out","","39.038986","-84.557245","Transit Authority of Northern Kentucky","","0",""
"25095","0","Decoursey at 36th - In","","39.048618","-84.503132","Transit Authority of Northern Kentucky","","0",""
"10602","0","Fairfield at Riviera - Out","","39.102199","-84.488116","Transit Authority of Northern Kentucky","","0",""
"860","0","Monte at Rose - In","","39.056705","-84.518144","Transit Authority of Northern Kentucky","","0",""
"861","0","Monte at Benton - In","","39.058196","-84.515577","Transit Authority of Northern Kentucky","","0",""
"862","0","White Ct at Monte - Out","","39.05822","-84.515377","Transit Authority of Northern Kentucky","","0",""
"620","0","S Ft Thomas at Klainecrest - In","","39.072166","-84.44625","Transit Authority of Northern Kentucky","","0",""
"10605","0","Newport on Levee - In","","39.094542","-84.495433","Transit Authority of Northern Kentucky","","0",""
"863","0","Phelps at White - Out","","39.058039","-84.51373","Transit Authority of Northern Kentucky","","0",""
"621","0","S Ft Thomas at Tremont - Out","","39.074162","-84.447091","Transit Authority of Northern Kentucky","","0",""
"864","0","Todd at Benton - Out","","39.057941","-84.512615","Transit Authority of Northern Kentucky","","0",""
"622","0","S Ft Thomas at Tremont - In","","39.074227","-84.447286","Transit Authority of Northern Kentucky","","0",""
"623","0","Highland at Ft Thomas - Out","","39.0781","-84.4495","Transit Authority of Northern Kentucky","","0",""
"865","0","Alden at Welsh - Out","","39.058683","-84.512624","Transit Authority of Northern Kentucky","","0",""
"10607","0","Monmouth at Third - Out","","39.093814","-84.496335","Transit Authority of Northern Kentucky","","0",""
"624","0","Linden at S Ft Thomas - In","","39.075448","-84.447247","Transit Authority of Northern Kentucky","","0",""
"625","0","6th at Monmouth - Out","","39.091566","-84.493307","Transit Authority of Northern Kentucky","","0",""
"867","0","White ct at Phelp - In","","39.05787","-84.513772","Transit Authority of Northern Kentucky","","0",""
"100365","0","Dixie at Cave Run - In","","39.008456","-84.611494","Transit Authority of Northern Kentucky","","0",""
"868","0","Holman at 19th - In","","39.0667","-84.5104","Transit Authority of Northern Kentucky","","0",""
"626","0","S Ft Thomas at Chalfonte - In","","39.076444","-84.447225","Transit Authority of Northern Kentucky","","0",""
"627","0","N Fort Thomas at Lumley - In","","39.080147","-84.448508","Transit Authority of Northern Kentucky","","0",""
"100125","0","Dixie at Highland - Out","","39.040958","-84.555059","Transit Authority of Northern Kentucky","","0",""
"628","0","St Nicholas at S Ft Thomas - Out","","39.077613","-84.447977","Transit Authority of Northern Kentucky","","0",""
"25090","0","Rittes Corner - In","","39.047106","-84.503321","Transit Authority of Northern Kentucky","","0",""
"629","0","N Montrose at N Ft Thomas - In","","39.083685","-84.451969","Transit Authority of Northern Kentucky","","0",""
"10600","0","Fairfield at Berry - Out","","39.104221","-84.485651","Transit Authority of Northern Kentucky","","0",""
"100180","0","Dixie at Hallem - Out","","39.018092","-84.597614","Transit Authority of Northern Kentucky","","0",""
"100185","0","Dixie at Commonwealth - Out","","39.016603","-84.601119","Transit Authority of Northern Kentucky","","0",""
"10490","0","W 8th at Isabella - Out","","39.08658","-84.497242","Transit Authority of Northern Kentucky","","0",""
"10493","0","Isabella at W 9th - In","","39.085119","-84.495742","Transit Authority of Northern Kentucky","","0",""
"10251","0","Taylor Mill at Mafred - In","","38.990034","-84.502774","Transit Authority of Northern Kentucky","","0",""
"10492","0","Isabella at W 9th - Out","","39.085211","-84.496008","Transit Authority of Northern Kentucky","","0",""
"10250","0","Walnut at Taylor Mill - In","","39.017924","-84.505941","Transit Authority of Northern Kentucky","","0",""
"872","0","Holman at 19th - In","","39.066496","-84.510429","Transit Authority of Northern Kentucky","","0",""
"630","0","N Ft Thomas at Taylor - In","","39.085179","-84.452911","Transit Authority of Northern Kentucky","","0",""
"873","0","W 18th at Holman - In","","39.06837","-84.511519","Transit Authority of Northern Kentucky","","0",""
"631","0","N Ft Thomas at Taylor - Out","","39.085458","-84.452999","Transit Authority of Northern Kentucky","","0",""
"874","0","Holman at W 18th - Out","","39.068253","-84.511316","Transit Authority of Northern Kentucky","","0",""
"632","0","N Ft Thomas at Mayo - In","","39.086321","-84.450434","Transit Authority of Northern Kentucky","","0",""
"875","0","Holman at W 17th - In","","39.069855","-84.511902","Transit Authority of Northern Kentucky","","0",""
"633","0","N Ft Thomas at Mayo - Out","","39.086437","-84.450504","Transit Authority of Northern Kentucky","","0",""
"876","0","W 16th at Holman - In","","39.070911","-84.512017","Transit Authority of Northern Kentucky","","0",""
"88888","0","Holmes High School - In","","39.061151","-84.502469","Transit Authority of Northern Kentucky","","0",""
"634","0","N Ft Thomas at Memorial - In","","39.08694","-84.449005","Transit Authority of Northern Kentucky","","0",""
"877","0","W 16th at Holman - Out","","39.071014","-84.512211","Transit Authority of Northern Kentucky","","0",""
"635","0","N Ft Thomas at Memorial - Out","","39.086995","-84.449112","Transit Authority of Northern Kentucky","","0",""
"10253","0","5788 Taylor Mill - In","","38.986625","-84.503209","Transit Authority of Northern Kentucky","","0",""
"10494","0","Isabella at 11th - Out","","39.084008","-84.494884","Transit Authority of Northern Kentucky","","0",""
"878","0","Holman at Linden - In","","39.072803","-84.512496","Transit Authority of Northern Kentucky","","0",""
"636","0","N Ft Thomas at Burnet Ridge - In","","39.088989","-84.447903","Transit Authority of Northern Kentucky","","0",""
"10252","0","5790 Taylor Mill - Out","","38.986525","-84.503291","Transit Authority of Northern Kentucky","","0",""
"879","0","Linden at Holman - Out","","39.072889","-84.512669","Transit Authority of Northern Kentucky","","0",""
"10497","0","11th at Isabella - In","","39.082839","-84.493576","Transit Authority of Northern Kentucky","","0",""
"10255","0","Clover at Taylor Mill - In","","38.982006","-84.501832","Transit Authority of Northern Kentucky","","0",""
"638","0","N Ft Thomas at Dixie Pl - In","","39.090578","-84.447488","Transit Authority of Northern Kentucky","","0",""
"10254","0","Taylor Mill at Clover - Out","","38.981917","-84.501955","Transit Authority of Northern Kentucky","","0",""
"639","0","Dixie Pl at N Ft Thomas - Out","","39.090619","-84.447656","Transit Authority of Northern Kentucky","","0",""
"10499","0","W 11th at Columbia - Out","","39.084126","-84.490978","Transit Authority of Northern Kentucky","","0",""
"10257","0","Brandtly Rdg at Taylor Mill - In","","38.980966","-84.501271","Transit Authority of Northern Kentucky","","0",""
"10015","0","E 3rd at Berwing - Out","","39.099135","-84.509667","Transit Authority of Northern Kentucky","","0",""
"10498","0","W 11th at Central - Out","","39.083366","-84.492359","Transit Authority of Northern Kentucky","","0",""
"10256","0","Taylor Mill at Brandtly - Out","","38.980799","-84.501453","Transit Authority of Northern Kentucky","","0",""
"10014","0","Rosa Parks at E Freedom - In","","39.097362","-84.511904","Transit Authority of Northern Kentucky","","0",""
"10259","0","Taylor Mill at Wayskin - In","","38.979662","-84.501538","Transit Authority of Northern Kentucky","","0",""
"10017","0","Taylor Southgate - Cincy - In","","39.098556","-84.50372","Transit Authority of Northern Kentucky","","0",""
"10258","0","Sipple at Taylor Mill - In","","38.978988","-84.501567","Transit Authority of Northern Kentucky","","0",""
"10016","0","E Pete Rose at Taylor-South - In","","39.098696","-84.504208","Transit Authority of Northern Kentucky","","0",""
"10260","0","5951 Taylor Mill - Out","","38.977052","-84.501784","Transit Authority of Northern Kentucky","","0",""
"100195","0","Dixie at Forest - Out","","39.012034","-84.607416","Transit Authority of Northern Kentucky","","0",""
"PATELE","0","Patterson at 11th","","39.082086","-84.495108","Transit Authority of Northern Kentucky","","0",""
"10262","0","Hands Pike at Taylor Mill - Out","","38.973533","-84.502227","Transit Authority of Northern Kentucky","","0",""
"10261","0","5954 Taylor Mill Rd - In","","38.977442","-84.501619","Transit Authority of Northern Kentucky","","0",""
"30093","0","St. Elizabeth Ft.Thomas In-Out","","39.078131","-84.466332","Transit Authority of Northern Kentucky","","0",""
"100190","0","Dixie at McAlpin - Out","","39.013542","-84.605584","Transit Authority of Northern Kentucky","","0",""
"30090","0","Howe at Magellan Way - Out","","39.033067","-84.516623","Transit Authority of Northern Kentucky","","0",""
"880","0","Holman at W 14th - In","","39.074713","-84.512969","Transit Authority of Northern Kentucky","","0",""
"881","0","Holman at W 14th - Out","","39.074728","-84.513132","Transit Authority of Northern Kentucky","","0",""
"882","0","Holman at W 13th - In","","39.075644","-84.513221","Transit Authority of Northern Kentucky","","0",""
"640","0","N Ft Thomas at Hartweg - Out","","39.091772","-84.447356","Transit Authority of Northern Kentucky","","0",""
"883","0","Holman at W 13th - Out","","39.075783","-84.513416","Transit Authority of Northern Kentucky","","0",""
"641","0","Cliffview at N Ft Thomas - In","","39.092291","-84.447213","Transit Authority of Northern Kentucky","","0",""
"30097","0","US 25 at Richwood - Out","","38.9289","-84.6273","Transit Authority of Northern Kentucky","","0",""
"884","0","W 12th at Holman - In","","39.077241","-84.513623","Transit Authority of Northern Kentucky","","0",""
"642","0","E Southgate at N Ft Thomas - In","","39.093088","-84.447594","Transit Authority of Northern Kentucky","","0",""
"885","0","Holman at W 12th - Out","","39.076985","-84.513683","Transit Authority of Northern Kentucky","","0",""
"643","0","N Ft Thomas at W Southgate - Out","","39.093125","-84.447807","Transit Authority of Northern Kentucky","","0",""
"644","0","N Ft Thomas at Bellaire - In","","39.093751","-84.447966","Transit Authority of Northern Kentucky","","0",""
"30099","0","Philadelphia at 3rd - Out","","39.0877","-84.5192","Transit Authority of Northern Kentucky","","0",""
"645","0","N Ft Thomas at Holly - Out","","39.09376","-84.448613","Transit Authority of Northern Kentucky","","0",""
"888","0","Holman at Berry - Out","","39.078742","-84.514203","Transit Authority of Northern Kentucky","","0",""
"646","0","N Ft Thomas at Earnscliffe - In","","39.094807","-84.450917","Transit Authority of Northern Kentucky","","0",""
"10264","0","Taylor Mill at Clubhouse - Out","","38.971866","-84.502661","Transit Authority of Northern Kentucky","","0",""
"647","0","N Ft Thomas at Tower Hill - Out","","39.094512","-84.450856","Transit Authority of Northern Kentucky","","0",""
"10263","0","Pine at Clubhouse - In","","38.971811","-84.502488","Transit Authority of Northern Kentucky","","0",""
"648","0","N Fort Thomas at Rossford- In","","39.096433","-84.450077","Transit Authority of Northern Kentucky","","0",""
"10266","0","Taylor Mill at Senour - In","","38.970535","-84.502893","Transit Authority of Northern Kentucky","","0",""
"649","0","Ft Thomas at Rossford - Out","","39.096356","-84.450388","Transit Authority of Northern Kentucky","","0",""
"10265","0","Senour at Taylor Mill - Out","","38.970572","-84.503063","Transit Authority of Northern Kentucky","","0",""
"10026","0","Notre Dame High School - In","","39.062306","-84.532194","Transit Authority of Northern Kentucky","","0",""
"10268","0","Taylor Mill at Klette - In","","38.965733","-84.503703","Transit Authority of Northern Kentucky","","0",""
"10267","0","Taylor Mill at Klette - Out","","38.96622","-84.503791","Transit Authority of Northern Kentucky","","0",""
"10269","0","Taylor Mill at Rusconi - Out","","38.957825","-84.503722","Transit Authority of Northern Kentucky","","0",""
"100160","0","Dixie at Winding Way - Out","","39.026584","-84.581471","Transit Authority of Northern Kentucky","","0",""
"100165","0","Dixie at Edgewood - Out","","39.022409","-84.586069","Transit Authority of Northern Kentucky","","0",""
"30081","0","Holman at W Robbins - In","","39.079093","-84.514386","Transit Authority of Northern Kentucky","","0",""
"30083","0","W 5th at York - Out","","39.091218","-84.496276","Transit Authority of Northern Kentucky","","0",""
"30080","0","Holman at W 17th - Out","","39.069944","-84.511764","Transit Authority of Northern Kentucky","","0",""
"891","0","James at Eastern - Out","","39.057571","-84.50032","Transit Authority of Northern Kentucky","","0",""
"10239","0","Taylor Mill at Lone Oak - In","","39.004653","-84.494737","Transit Authority of Northern Kentucky","","0",""
"650","0","N Ft Thomas at Rossford - In","","39.097425","-84.449964","Transit Authority of Northern Kentucky","","0",""
"10238","0","Lone Oak at Taylor Mill - Out","","39.004638","-84.494912","Transit Authority of Northern Kentucky","","0",""
"30089","0","Fidelity - In","","39.033091","-84.516423","Transit Authority of Northern Kentucky","","0",""
"893","0","E 30th at E 31st - Out","","39.054671","-84.501501","Transit Authority of Northern Kentucky","","0",""
"651","0","N Ft Thomas at Rossford - Out","","39.097239","-84.4501","Transit Authority of Northern Kentucky","","0",""
"3019","0","Jamike at Cox - In","","39.038806","-84.629899","Transit Authority of Northern Kentucky","","0",""
"894","0","E 30th at Decoursey - Out","","39.053912","-84.50319","Transit Authority of Northern Kentucky","","0",""
"653","0","Highland at Mayfield - In","","39.077648","-84.450843","Transit Authority of Northern Kentucky","","0",""
"896","0","Decoursey at 31st - Out","","39.053195","-84.503298","Transit Authority of Northern Kentucky","","0",""
"654","0","Highland at Trinity - Out","","39.077671","-84.450575","Transit Authority of Northern Kentucky","","0",""
"655","0","Highland at E Vernon - Out","","39.077105","-84.451896","Transit Authority of Northern Kentucky","","0",""
"30087","0","3rd at York Newport - In","","39.0939","-84.4965","Transit Authority of Northern Kentucky","","0",""
"414","0","US Hwy 42 at Russell - Out","","38.996974","-84.629939","Transit Authority of Northern Kentucky","","0",""
"657","0","Highland at James - In","","39.076554","-84.453612","Transit Authority of Northern Kentucky","","0",""
"415","0","US Hwy 42 at Gibbons - In","","38.997722","-84.628281","Transit Authority of Northern Kentucky","","0",""
"100155","0","Dixie at Lookout Farm - Out","","39.030335","-84.573865","Transit Authority of Northern Kentucky","","0",""
"10231","0","Millvalley at Taylor Mill - Out","","39.010801","-84.493604","Transit Authority of Northern Kentucky","","0",""
"10472","0","5th at Monmouth - Out","","39.0922","-84.4944","Transit Authority of Northern Kentucky","","0",""
"10230","0","Rosewood at Taylor Mill - Out","","39.012627","-84.493794","Transit Authority of Northern Kentucky","","0",""
"659","0","Highland at Pentland - In","","39.075855","-84.455373","Transit Authority of Northern Kentucky","","0",""
"10475","0","E 5th at Washington - Out","","39.09375","-84.491704","Transit Authority of Northern Kentucky","","0",""
"10233","0","Taylor Mill at Valley Square - O","","39.010002","-84.493074","Transit Authority of Northern Kentucky","","0",""
"10474","0","E 5th at Saratoga - Out","","39.09302","-84.493021","Transit Authority of Northern Kentucky","","0",""
"418","0","7420 US Hwy 42 - Out","","38.995983","-84.631399","Transit Authority of Northern Kentucky","","0",""
"10232","0","Millvalley at Taylor Mill - In","","39.010855","-84.493409","Transit Authority of Northern Kentucky","","0",""
"419","0","US Hwy 42 at New Uri - In","","38.995723","-84.631312","Transit Authority of Northern Kentucky","","0",""
"10235","0","Taylor Mill at Colonial - In","","39.009001","-84.492911","Transit Authority of Northern Kentucky","","0",""
"10476","0","Washington at E 4th - Out","","39.094457","-84.492062","Transit Authority of Northern Kentucky","","0",""
"10234","0","Taylor Mill at Colonial - Out","","39.009049","-84.493035","Transit Authority of Northern Kentucky","","0",""
"10237","0","Taylor Mill at Sunset - In","","39.006208","-84.493991","Transit Authority of Northern Kentucky","","0",""
"10478","0","E 4th at Saratoga - In","","39.093868","-84.493481","Transit Authority of Northern Kentucky","","0",""
"10236","0","Sunset at Taylor Mill - Out","","39.00635","-84.494116","Transit Authority of Northern Kentucky","","0",""
"100170","0","Dixie at Kenton Lands - Out","","39.021268","-84.588921","Transit Authority of Northern Kentucky","","0",""
"100175","0","3150 Dixie Highway - Out","","39.020204","-84.593001","Transit Authority of Northern Kentucky","","0",""
"10240","0","Janet at Taylor Mill - Out","","39.003734","-84.494808","Transit Authority of Northern Kentucky","","0",""
"10481","0","5th at Central - In","","39.090301","-84.497942","Transit Authority of Northern Kentucky","","0",""
"30071","0","Thomas Moreat at S Loop - In","","39.012064","-84.558614","Transit Authority of Northern Kentucky","","0",""
"30070","0","Legends Way at Thomas More - Out","","39.018325","-84.560837","Transit Authority of Northern Kentucky","","0",""
"30073","0","580 S Loop at Thomas More - In","","39.011265","-84.559726","Transit Authority of Northern Kentucky","","0",""
"30072","0","S Loop at Thomas More - In","","39.011654","-84.559086","Transit Authority of Northern Kentucky","","0",""
"660","0","Highland at Sweet Briar - Out","","39.075635","-84.455708","Transit Authority of Northern Kentucky","","0",""
"30078","0","Dudley at Sanctuary - In","","39.016875","-84.548356","Transit Authority of Northern Kentucky","","0",""
"10249","0","Taylor Mill at Winston Hill - In","","39.017208","-84.501569","Transit Authority of Northern Kentucky","","0",""
"663","0","Highland at Wilbers - In","","39.075103","-84.457662","Transit Authority of Northern Kentucky","","0",""
"664","0","Highland at Ridgewood - Out","","39.074927","-84.457986","Transit Authority of Northern Kentucky","","0",""
"30075","0","Medical Village at S Loop - In","","39.012562","-84.565309","Transit Authority of Northern Kentucky","","0",""
"422","0","7518 US Hwy 42 - Out","","38.994322","-84.633706","Transit Authority of Northern Kentucky","","0",""
"665","0","Highland at Highview - Out","","39.076298","-84.459531","Transit Authority of Northern Kentucky","","0",""
"30074","0","S Loop at Medical Village - In","","39.009728","-84.564917","Transit Authority of Northern Kentucky","","0",""
"423","0","US Hwy 42 at Circle - In","","38.994004","-84.633794","Transit Authority of Northern Kentucky","","0",""
"30077","0","US 27 at Holly Woods","","39.0527","-84.447924","Transit Authority of Northern Kentucky","","0",""
"666","0","Highland at Newman - In","","39.076174","-84.460544","Transit Authority of Northern Kentucky","","0",""
"667","0","Highland at Newman - Out","","39.075934","-84.460996","Transit Authority of Northern Kentucky","","0",""
"30076","0","Nicklaus at Palmer - In","","39.014336","-84.564459","Transit Authority of Northern Kentucky","","0",""
"PAT8TH","0","Patterson at 8th","","39.085806","-84.498356","Transit Authority of Northern Kentucky","","0",""
"10000","0","Fifth at Elm Cincinnati - Out","","39.100477","-84.517819","Transit Authority of Northern Kentucky","","0",""
"668","0","Highland at S Grand - In","","39.07578","-84.462174","Transit Authority of Northern Kentucky","","0",""
"10242","0","Taylor Mill at Ridgeway - Out","","39.000336","-84.493358","Transit Authority of Northern Kentucky","","0",""
"669","0","Highland at S Grand - Out","","39.075687","-84.461877","Transit Authority of Northern Kentucky","","0",""
"427","0","US Hwy 42 at Ewing - Out","","38.99122","-84.636781","Transit Authority of Northern Kentucky","","0",""
"10241","0","Taylor Mill at Janet - In","","39.003532","-84.494552","Transit Authority of Northern Kentucky","","0",""
"10244","0","Taylor Mill at St Matthews - In","","38.9978","-84.4963","Transit Authority of Northern Kentucky","","0",""
"10486","0","Sixth at Isabella - Out","","39.08837","-84.49863","Transit Authority of Northern Kentucky","","0",""
"10485","0","Central at W 6th - Out","","39.089092","-84.497519","Transit Authority of Northern Kentucky","","0",""
"10243","0","Taylor Mill at Forest - Out","","39.000306","-84.493522","Transit Authority of Northern Kentucky","","0",""
"10488","0","Isabella at W 7th - Out","","39.087719","-84.498274","Transit Authority of Northern Kentucky","","0",""
"10246","0","Taylor Mill at St Mathews - Out","","38.996842","-84.496982","Transit Authority of Northern Kentucky","","0",""
"10487","0","Isabella at Sixth - In","","39.088187","-84.498525","Transit Authority of Northern Kentucky","","0",""
"10003","0","Carew Tower at Race - Out","","39.100943","-84.513798","Transit Authority of Northern Kentucky","","0",""
"10248","0","Wolf at Taylor Mill - In","","38.995972","-84.4973","Transit Authority of Northern Kentucky","","0",""
"10005","0","Vine at 4th Cincinnati - In","","39.0998","-84.5125","Transit Authority of Northern Kentucky","","0",""
"10489","0","W 7th at Isabella - In","","39.087579","-84.497959","Transit Authority of Northern Kentucky","","0",""
"10247","0","Taylor Mill at Wolf - Out","","38.996073","-84.497408","Transit Authority of Northern Kentucky","","0",""
"10691","0","Alexandria at Grandview - Out","","39.06266","-84.452932","Transit Authority of Northern Kentucky","","0",""
"10690","0","Alexandria at Grandview - In","","39.062687","-84.452698","Transit Authority of Northern Kentucky","","0",""
"30062","0","Thomas More at Villa Madonna - O","","39.023391","-84.569663","Transit Authority of Northern Kentucky","","0",""
"30061","0","Thomas More at Villa Madonna - I","","39.023443","-84.569184","Transit Authority of Northern Kentucky","","0",""
"670","0","Gaddis at Rosewood - In","","39.076851","-84.463407","Transit Authority of Northern Kentucky","","0",""
"671","0","St. Elizabeth Ft. Thomas - Out","","39.0786","-84.4653","Transit Authority of Northern Kentucky","","0",""
"30068","0","Thomas More at Chancellor - Out","","39.021151","-84.562626","Transit Authority of Northern Kentucky","","0",""
"10217","0","Madison at Peach - In","","38.934148","-84.543843","Transit Authority of Northern Kentucky","","0",""
"30067","0","Thomas More at Chancellor - In","","39.021057","-84.562796","Transit Authority of Northern Kentucky","","0",""
"10458","0","7115 Industrial - In","","38.979305","-84.615255","Transit Authority of Northern Kentucky","","0",""
"10219","0","Madison in Old Madison - In","","39.017426","-84.529697","Transit Authority of Northern Kentucky","","0",""
"674","0","Churchill at N Grand - In","","39.080326","-84.467138","Transit Authority of Northern Kentucky","","0",""
"30069","0","Legends Way at Thomas More - In","","39.018166","-84.561073","Transit Authority of Northern Kentucky","","0",""
"432","0","US Hwy 42 at Ewing - In","","38.990461","-84.63711","Transit Authority of Northern Kentucky","","0",""
"10218","0","McKim at Madison - In","","38.950886","-84.541599","Transit Authority of Northern Kentucky","","0",""
"675","0","N Grand at Churchill - Out","","39.080166","-84.467317","Transit Authority of Northern Kentucky","","0",""
"30064","0","Thomas More at Renaissance - Out","","39.024318","-84.567636","Transit Authority of Northern Kentucky","","0",""
"676","0","N Grand at Churchill - In","","39.081764","-84.468926","Transit Authority of Northern Kentucky","","0",""
"30063","0","Renaissance at Thomas More - In","","39.024127","-84.567686","Transit Authority of Northern Kentucky","","0",""
"677","0","1360 North Grand - Out","","39.081476","-84.468965","Transit Authority of Northern Kentucky","","0",""
"30066","0","Thomas More at Centre View - Out","","39.022811","-84.564207","Transit Authority of Northern Kentucky","","0",""
"678","0","Carothers at N Grand - In","","39.086514","-84.477684","Transit Authority of Northern Kentucky","","0",""
"30065","0","Thomas More at Poweleit - In","","39.022635","-84.564297","Transit Authority of Northern Kentucky","","0",""
"679","0","Carothers at N Grand - Out","","39.086325","-84.477529","Transit Authority of Northern Kentucky","","0",""
"10693","0","Alexandria at Grant - In","","39.058823","-84.451099","Transit Authority of Northern Kentucky","","0",""
"10692","0","Alexandria at S Ft Thomas - Out","","39.059153","-84.451563","Transit Authority of Northern Kentucky","","0",""
"10695","0","Alexandria at Riverview - In","","39.058135","-84.45049","Transit Authority of Northern Kentucky","","0",""
"10694","0","Alexandria at Grant - Out","","39.058248","-84.450773","Transit Authority of Northern Kentucky","","0",""
"10697","0","Arlington at Alexandria - In","","39.056808","-84.449612","Transit Authority of Northern Kentucky","","0",""
"10696","0","Alexandria at Arlington - Out","","39.056717","-84.449749","Transit Authority of Northern Kentucky","","0",""
"10699","0","Hawthorne at Alexandria - In","","39.055243","-84.449343","Transit Authority of Northern Kentucky","","0",""
"10698","0","Arlington at Alexandria - Out","","39.055356","-84.449544","Transit Authority of Northern Kentucky","","0",""
"10460","0","7100 Industrial - Out","","38.979053","-84.613822","Transit Authority of Northern Kentucky","","0",""
"30051","0","W 40th at Winston - In-Out","","39.04457","-84.506501","Transit Authority of Northern Kentucky","","0",""
"30050","0","Covert Run - In","","39.099867","-84.477739","Transit Authority of Northern Kentucky","","0",""
"680","0","Birch at Prospect - Out","","39.08559","-84.47979","Transit Authority of Northern Kentucky","","0",""
"30057","0","Crestview Hills Shopping - In","","39.026213","-84.57629","Transit Authority of Northern Kentucky","","0",""
"10228","0","Sharon at Taylor Mill - Out","","39.013545","-84.494081","Transit Authority of Northern Kentucky","","0",""
"30056","0","Crestview Hills Shopping - Out","","39.026243","-84.576051","Transit Authority of Northern Kentucky","","0",""
"10227","0","Taylor Mill at Lorraine - In","","39.015582","-84.496886","Transit Authority of Northern Kentucky","","0",""
"30059","0","Town Center at Dixie Hwy - In","","39.026145","-84.579395","Transit Authority of Northern Kentucky","","0",""
"200","0","Petersburg at Progress - In","","39.074464","-84.655804","Transit Authority of Northern Kentucky","","0",""
"201","0","CVG - Donaldson at Loomis - In","","39.0608","-84.6616","Transit Authority of Northern Kentucky","","0",""
"10229","0","Taylor Mill at Sharon - In","","39.013909","-84.494105","Transit Authority of Northern Kentucky","","0",""
"30053","0","Taylor Mill at Heathermoor - In","","38.987666","-84.503828","Transit Authority of Northern Kentucky","","0",""
"30052","0","Taylor Mill at Heathermoor - Out","","38.98737","-84.50387","Transit Authority of Northern Kentucky","","0",""
"204","0","Donaldson at Airport LTP - Out","","39.062774","-84.647014","Transit Authority of Northern Kentucky","","0",""
"205","0","Donaldson at Airport LTP - In","","39.062335","-84.646723","Transit Authority of Northern Kentucky","","0",""
"206","0","CVG Spence at Kenton - In","","39.0599","-84.6518","Transit Authority of Northern Kentucky","","0",""
"10462","0","Industrial at Holton - Out","","38.977595","-84.609391","Transit Authority of Northern Kentucky","","0",""
"10220","0","Taylor Mill at Old Taylor Mill-O","","39.017713","-84.507168","Transit Authority of Northern Kentucky","","0",""
"10461","0","Industrial at Holton - In","","38.977462","-84.609502","Transit Authority of Northern Kentucky","","0",""
"207","0","Lincoln at Spence - In","","39.058906","-84.653847","Transit Authority of Northern Kentucky","","0",""
"10464","0","Industrial at Foundation - Out","","38.976954","-84.601343","Transit Authority of Northern Kentucky","","0",""
"10222","0","Taylor Mill at Oak - Out","","39.017945","-84.504508","Transit Authority of Northern Kentucky","","0",""
"10463","0","Industrial at Foundation - In","","38.976739","-84.6013","Transit Authority of Northern Kentucky","","0",""
"10221","0","Taylor Mill at Old Taylor Mill-I","","39.017978","-84.50719","Transit Authority of Northern Kentucky","","0",""
"10466","0","Industrial at Turkeyfoot - Out","","38.977494","-84.59407","Transit Authority of Northern Kentucky","","0",""
"10224","0","Taylor Mill at Wischer - Out","","39.016254","-84.499151","Transit Authority of Northern Kentucky","","0",""
"10465","0","Industrial at Turkey - In","","38.977247","-84.59411","Transit Authority of Northern Kentucky","","0",""
"10223","0","Redbud at Taylor Mill - Out","","39.017684","-84.503274","Transit Authority of Northern Kentucky","","0",""
"10226","0","Taylor Mill at Vogelpohl - Out","","39.015862","-84.498042","Transit Authority of Northern Kentucky","","0",""
"10225","0","Wischer at Taylor Mill - In","","39.016456","-84.499233","Transit Authority of Northern Kentucky","","0",""
"30040","0","York at W 5th - Out","","39.091694","-84.495801","Transit Authority of Northern Kentucky","","0",""
"10679","0","Alexandria at Custis - In","","39.071885","-84.47068","Transit Authority of Northern Kentucky","","0",""
"10678","0","Joyce at Alexandria - In","","39.072378","-84.471138","Transit Authority of Northern Kentucky","","0",""
"30048","0","Howe at Crosby - Out","","39.032129","-84.51403","Transit Authority of Northern Kentucky","","0",""
"30047","0","Ft.Wright Hub","","39.035685","-84.530244","Transit Authority of Northern Kentucky","","0",""
"30042","0","Dixie at Richwood - Out","","38.918644","-84.624129","Transit Authority of Northern Kentucky","","0",""
"215","0","Petersburg Road Aviation - Out","","39.075935","-84.668123","Transit Authority of Northern Kentucky","","0",""
"10671","0","Alexandria at Bluegrass - Out","","39.0755","-84.477009","Transit Authority of Northern Kentucky","","0",""
"10673","0","Electric at Ridgeway - Out","","39.07462","-84.475287","Transit Authority of Northern Kentucky","","0",""
"10672","0","Alexandria at Bluegrass - In","","39.075234","-84.476368","Transit Authority of Northern Kentucky","","0",""
"10675","0","2379 Alexandria - Out","","39.074229","-84.474092","Transit Authority of Northern Kentucky","","0",""
"30049","0","Latonia Plaza - In - Out","","39.0441","-84.5052","Transit Authority of Northern Kentucky","","0",""
"10674","0","Electric at Ridgeway - In","","39.074677","-84.475098","Transit Authority of Northern Kentucky","","0",""
"10677","0","Alexandria at Joyce - Out","","39.072565","-84.471495","Transit Authority of Northern Kentucky","","0",""
"10676","0","2400 Alexandria - In","","39.074188","-84.473691","Transit Authority of Northern Kentucky","","0",""
"10680","0","Alexandria at Custis - Out","","39.071459","-84.470547","Transit Authority of Northern Kentucky","","0",""
"30034","0","4th at Sycamore-Cincinnati","","39.100617","-84.508213","Transit Authority of Northern Kentucky","","0",""
"10689","0","Alexandria at Blossom - Out","","39.063942","-84.454565","Transit Authority of Northern Kentucky","","0",""
"221","0","Cougar at N Bend - In","","39.0568","-84.70405","Transit Authority of Northern Kentucky","","0",""
"10205","0","Madison at Hartland - In","","38.93819","-84.544231","Transit Authority of Northern Kentucky","","0",""
"464","0","Donaldson at Holly - Out","","39.028087","-84.615775","Transit Authority of Northern Kentucky","","0",""
"465","0","Houston at Sprucewood - Out","","39.027965","-84.618509","Transit Authority of Northern Kentucky","","0",""
"467","0","Houston at Turfway - Out","","39.020121","-84.629497","Transit Authority of Northern Kentucky","","0",""
"30030","0","Highland Pike at Highland - Out","","39.055488","-84.524849","Transit Authority of Northern Kentucky","","0",""
"226","0","N Bend at S Park - Out","","39.087413","-84.71153","Transit Authority of Northern Kentucky","","0",""
"30032","0","Mary Grubbs at School - In","","38.858915","-84.617577","Transit Authority of Northern Kentucky","","0",""
"10682","0","Alexandria at Overlook - In","","39.069789","-84.468699","Transit Authority of Northern Kentucky","","0",""
"10681","0","Alexandria at Overlook - Out","","39.069781","-84.468929","Transit Authority of Northern Kentucky","","0",""
"10200","0","Madison at McCullum - In","","38.944439","-84.543733","Transit Authority of Northern Kentucky","","0",""
"10684","0","Alexandria at Moock - In","","39.068742","-84.466702","Transit Authority of Northern Kentucky","","0",""
"10683","0","Alexandria at Moock - Out","","39.068729","-84.467184","Transit Authority of Northern Kentucky","","0",""
"10202","0","Madison at McCullum - Out","","38.943234","-84.544471","Transit Authority of Northern Kentucky","","0",""
"30038","0","York at 5th Newport","","39.0922","-84.4965","Transit Authority of Northern Kentucky","","0",""
"10685","0","Alexandria at Beverly Hls - Out","","39.064532","-84.461467","Transit Authority of Northern Kentucky","","0",""
"10201","0","McCullum at Madison - In","","38.943475","-84.544293","Transit Authority of Northern Kentucky","","0",""
"10204","0","Kroger Park & Ride - Out","","38.93038","-84.546973","Transit Authority of Northern Kentucky","","0",""
"10688","0","Blossom at Alexandria - Out","","39.063809","-84.45475","Transit Authority of Northern Kentucky","","0",""
"10687","0","Cannon at Alexandria - In","","39.06481","-84.459603","Transit Authority of Northern Kentucky","","0",""
"10203","0","Madison at Independence - Out","","38.941997","-84.544552","Transit Authority of Northern Kentucky","","0",""
"230","0","Mineola at Dolwick - Out","","39.057434","-84.625962","Transit Authority of Northern Kentucky","","0",""
"25220","0","15th at Wheeler - In","","39.074882","-84.500458","Transit Authority of Northern Kentucky","","0",""
"KENBGR","0","Kentucky at Bluegrass Out","","39.074316","-84.482991","Transit Authority of Northern Kentucky","","0",""
"25235","0","Greenup at 15th - In","","39.074288","-84.504215","Transit Authority of Northern Kentucky","","0",""
"240","0","Olympic at Mineola - Out","","39.0523","-84.629","Transit Authority of Northern Kentucky","","0",""
"243","0","Circleport at Olympic - In","","39.052084","-84.631433","Transit Authority of Northern Kentucky","","0",""
"244","0","Burlington Park and Ride - In","","39.0192","-84.6931","Transit Authority of Northern Kentucky","","0",""
"10190","0","Madison at Mary Laidley - Out","","39.004835","-84.536116","Transit Authority of Northern Kentucky","","0",""
"10192","0","Madison at Hands Pike - Out","","38.99147","-84.534929","Transit Authority of Northern Kentucky","","0",""
"10191","0","Hands Pike P and R - Out","","38.995161","-84.536244","Transit Authority of Northern Kentucky","","0",""
"10194","0","Patriot Way at Madison - In","","38.954463","-84.541326","Transit Authority of Northern Kentucky","","0",""
"10193","0","Madison at Sylvan - Out","","38.954502","-84.541529","Transit Authority of Northern Kentucky","","0",""
"10196","0","Madison at Aristocrat - Out","","38.952579","-84.541687","Transit Authority of Northern Kentucky","","0",""
"10195","0","Madison at Aristocrat - In","","38.952761","-84.541468","Transit Authority of Northern Kentucky","","0",""
"25205","0","Eastern at Patton - In","","39.072864","-84.498531","Transit Authority of Northern Kentucky","","0",""
"252","0","Rowan at Donaldson - In","","39.028394","-84.616447","Transit Authority of Northern Kentucky","","0",""
"25200","0","Eastern at 17th - In","","39.071454","-84.498557","Transit Authority of Northern Kentucky","","0",""
"10198","0","Madison at Mc Millan - In","","38.948611","-84.54182","Transit Authority of Northern Kentucky","","0",""
"10197","0","Madison at Mc Millan - Out","","38.948754","-84.541884","Transit Authority of Northern Kentucky","","0",""
"10199","0","Madison at McCullum - Out","","38.944401","-84.543901","Transit Authority of Northern Kentucky","","0",""
"25215","0","Eastern at 15th - In","","39.07494","-84.498768","Transit Authority of Northern Kentucky","","0",""
"265","0","Taylor Mill at Hands Pike - In","","38.973414","-84.502049","Transit Authority of Northern Kentucky","","0",""
"266","0","Highway at Spring - In","","39.089442","-84.527521","Transit Authority of Northern Kentucky","","0",""
"267","0","Parkway at Highway - In","","39.09053","-84.530568","Transit Authority of Northern Kentucky","","0",""
"268","0","Highway at Hathaway - Out","","39.090234","-84.531904","Transit Authority of Northern Kentucky","","0",""
"269","0","1223 Highway - In","","39.089646","-84.53228","Transit Authority of Northern Kentucky","","0",""
"25210","0","Eastern @ Oliver","","39.073588","-84.49853","Transit Authority of Northern Kentucky","","0",""
"10170","0","Kyles at St Anthony Cir - Out","","39.056242","-84.53695","Transit Authority of Northern Kentucky","","0",""
"10172","0","Kyles at W Crittenden - Out","","39.054236","-84.536049","Transit Authority of Northern Kentucky","","0",""
"10171","0","Kyles at W Henry Clay - Out","","39.054979","-84.536413","Transit Authority of Northern Kentucky","","0",""
"10174","0","Kyles at E Crittenden - In","","39.054362","-84.535931","Transit Authority of Northern Kentucky","","0",""
"10173","0","Kyles at Lorup - Out","","39.053415","-84.5356","Transit Authority of Northern Kentucky","","0",""
"270","0","Clark at Highway - Out","","39.08949","-84.532625","Transit Authority of Northern Kentucky","","0",""
"271","0","Highway at Altamount - Out","","39.089139","-84.534496","Transit Authority of Northern Kentucky","","0",""
"272","0","Highway at Altamount - In","","39.08907","-84.534152","Transit Authority of Northern Kentucky","","0",""
"273","0","Highway at Linden Grove - Out","","39.088783","-84.536103","Transit Authority of Northern Kentucky","","0",""
"274","0","Highway at Parkway - In","","39.0886","-84.535385","Transit Authority of Northern Kentucky","","0",""
"275","0","Highway at West - Out","","39.088858","-84.537911","Transit Authority of Northern Kentucky","","0",""
"276","0","Highway at West - In","","39.088804","-84.538187","Transit Authority of Northern Kentucky","","0",""
"277","0","Alberta at Highway - Out","","39.089611","-84.539388","Transit Authority of Northern Kentucky","","0",""
"278","0","Highway at Alberta - In","","39.089535","-84.539505","Transit Authority of Northern Kentucky","","0",""
"279","0","Highway at Uphill - In","","39.090037","-84.54009","Transit Authority of Northern Kentucky","","0",""
"10176","0","Kyles at St Anthony Cir - In","","39.056431","-84.536871","Transit Authority of Northern Kentucky","","0",""
"10178","0","Kyles at Cumberland - In","","39.05294","-84.535231","Transit Authority of Northern Kentucky","","0",""
"10177","0","Kyles at Cumberland - Out","","39.052322","-84.535417","Transit Authority of Northern Kentucky","","0",""
"10179","0","Highland at Ashlawn - In","","39.050899","-84.536496","Transit Authority of Northern Kentucky","","0",""
"10181","0","Highland at Highland Pike - Out","","39.049176","-84.538757","Transit Authority of Northern Kentucky","","0",""
"10180","0","Highland at Ashlawn - Out","","39.050913","-84.53662","Transit Authority of Northern Kentucky","","0",""
"10183","0","Ft. Wright WalMart - Out","","39.036507","-84.534477","Transit Authority of Northern Kentucky","","0",""
"10182","0","Highland at Lorup - In","","39.049241","-84.538496","Transit Authority of Northern Kentucky","","0",""
"10184","0","Valley Plaza at Highland - Out","","39.035121","-84.533672","Transit Authority of Northern Kentucky","","0",""
"280","0","Audrey at Montclair - Out","","39.091474","-84.54066","Transit Authority of Northern Kentucky","","0",""
"281","0","Audrey at Montclair - In","","39.091443","-84.540825","Transit Authority of Northern Kentucky","","0",""
"282","0","Montrose at Highway - Out","","39.093034","-84.540747","Transit Authority of Northern Kentucky","","0",""
"283","0","Highway at Montrose - In","","39.093022","-84.540915","Transit Authority of Northern Kentucky","","0",""
"284","0","Highway at Louise - Out","","39.094391","-84.540556","Transit Authority of Northern Kentucky","","0",""
"285","0","Highway at Louise - In","","39.094193","-84.540714","Transit Authority of Northern Kentucky","","0",""
"286","0","Highway at Elm - Out","","39.095129","-84.542469","Transit Authority of Northern Kentucky","","0",""
"287","0","Locust at Elm - Out","","39.094694","-84.545035","Transit Authority of Northern Kentucky","","0",""
"288","0","Elm at Locust - In","","39.094514","-84.545081","Transit Authority of Northern Kentucky","","0",""
"100705","0","Dixie at Circle - Out","","38.992914","-84.624518","Transit Authority of Northern Kentucky","","0",""
"289","0","Elm at Carneal - Out","","39.094358","-84.546202","Transit Authority of Northern Kentucky","","0",""
"100700","0","Dixie at Valley - Out","","38.996242","-84.625817","Transit Authority of Northern Kentucky","","0",""
"290","0","Elm at Carneal - In","","39.094056","-84.546662","Transit Authority of Northern Kentucky","","0",""
"BGRKEN","0","Bluegrass at Kentucky","","39.074242","-84.482812","Transit Authority of Northern Kentucky","","0",""
"291","0","Elm at Euclid - Out","","39.093857","-84.547833","Transit Authority of Northern Kentucky","","0",""
"292","0","Davies at Elm - In","","39.093579","-84.548403","Transit Authority of Northern Kentucky","","0",""
"294","0","Elm at Kenner - Out","","39.093158","-84.550342","Transit Authority of Northern Kentucky","","0",""
"200200","0","4th at Postal Alley - Out","","39.100101","-84.512148","Transit Authority of Northern Kentucky","","0",""
"295","0","Elm at Kenner - In","","39.093069","-84.550187","Transit Authority of Northern Kentucky","","0",""
"296","0","Elm at Oldham - Out","","39.09281","-84.551588","Transit Authority of Northern Kentucky","","0",""
"297","0","Elm at Oldham - In","","39.092616","-84.551891","Transit Authority of Northern Kentucky","","0",""
"298","0","Elm at Oldham - Out","","39.092715","-84.551969","Transit Authority of Northern Kentucky","","0",""
"299","0","Adela at Elm - In","","39.09208","-84.553218","Transit Authority of Northern Kentucky","","0",""
"10154","0","Court at Park - In","","39.087934","-84.508665","Transit Authority of Northern Kentucky","","0",""
"10161","0","Holman at Pike - In","","39.08025","-84.514953","Transit Authority of Northern Kentucky","","0",""
"10160","0","Holman at W Robbins - Out","","39.079293","-84.514583","Transit Authority of Northern Kentucky","","0",""
"10165","0","Delaware Xing at Madison - Out","","38.932022","-84.545067","Transit Authority of Northern Kentucky","","0",""
"10167","0","Main at 9th Covington - In","","39.080225","-84.517505","Transit Authority of Northern Kentucky","","0",""
"100735","0","Empire at Dixie - Out","","38.976113","-84.618903","Transit Authority of Northern Kentucky","","0",""
"25065","0","Winston at 42nd - In","","39.042333","-84.505904","Transit Authority of Northern Kentucky","","0",""
"100730","0","Dixie at Industrial - Out","","38.979581","-84.619811","Transit Authority of Northern Kentucky","","0",""
"25060","0","Winston at 43rd - In","","39.041232","-84.506498","Transit Authority of Northern Kentucky","","0",""
"100505","0","Pike at Lee - In","","39.079344","-84.516133","Transit Authority of Northern Kentucky","","0",""
"25075","0","Winston at 40th - In","","39.04381","-84.505047","Transit Authority of Northern Kentucky","","0",""
"100740","0","Empire at Dixon - Out","","38.973292","-84.623492","Transit Authority of Northern Kentucky","","0",""
"100500","0","Bullock at W-Pike","","39.077247","-84.520663","Transit Authority of Northern Kentucky","","0",""
"25070","0","Winston at 41st - In","","39.043262","-84.505372","Transit Authority of Northern Kentucky","","0",""
"100745","0","Empire at Empire Connector - Out","","38.970973","-84.628842","Transit Authority of Northern Kentucky","","0",""
"19OSUM","0","19th at Summer Hill","","39.079976","-84.482131","Transit Authority of Northern Kentucky","","0",""
"25040","0","Winston at Janet - In","","39.038803","-84.50788","Transit Authority of Northern Kentucky","","0",""
"100715","0","Dixie at Pinehurst - Out","","38.986517","-84.621805","Transit Authority of Northern Kentucky","","0",""
"25285","0","Greenup at 5th - In","","39.086149","-84.507394","Transit Authority of Northern Kentucky","","0",""
"25045","0","Latonia Kroger - In","","39.04118","-84.508818","Transit Authority of Northern Kentucky","","0",""
"100710","0","Dixie at Riehl - Out","","38.989474","-84.622717","Transit Authority of Northern Kentucky","","0",""
"25280","0","Greenup at 6th - In","","39.085005","-84.507107","Transit Authority of Northern Kentucky","","0",""
"25050","0","43rd at Winston - In","","39.041611","-84.507512","Transit Authority of Northern Kentucky","","0",""
"100725","0","7970 Dixie Highway - Out","","38.981423","-84.620326","Transit Authority of Northern Kentucky","","0",""
"25055","0","Winston at Doris - In","","39.040291","-84.507033","Transit Authority of Northern Kentucky","","0",""
"100720","0","7950 Dixie Highway - Out","","38.982929","-84.620683","Transit Authority of Northern Kentucky","","0",""
"25290","0","4th at Scott - In","","39.087378","-84.509203","Transit Authority of Northern Kentucky","","0",""
"100780","0","US 42 at Lacresta - Out","","38.983015","-84.644859","Transit Authority of Northern Kentucky","","0",""
"25260","0","Greenup at Robbins - In","","39.08044","-84.505937","Transit Authority of Northern Kentucky","","0",""
"25265","0","Greenup at 9th - In","","39.081681","-84.506243","Transit Authority of Northern Kentucky","","0",""
"100530","0","Madison at Seventh - In","","39.082994","-84.509945","Transit Authority of Northern Kentucky","","0",""
"100775","0","7960 US 42 - Out","","38.988922","-84.638929","Transit Authority of Northern Kentucky","","0",""
"100535","0","Madison at 6th - In","","39.084564","-84.510358","Transit Authority of Northern Kentucky","","0",""
"100790","0","1870 Mall Road - Out","","38.983424","-84.650066","Transit Authority of Northern Kentucky","","0",""
"100550","0","Mall at Plaza - In","","38.991418","-84.651691","Transit Authority of Northern Kentucky","","0",""
"226MAN","0","226 Main Out","","39.07742","-84.490788","Transit Authority of Northern Kentucky","","0",""
"25270","0","Greenup at 8th - In","","39.082645","-84.506491","Transit Authority of Northern Kentucky","","0",""
"25275","0","Greenup at 7th - In","","39.083859","-84.506816","Transit Authority of Northern Kentucky","","0",""
"25035","0","Winston at Church - In","","39.037276","-84.509048","Transit Authority of Northern Kentucky","","0",""
"100540","0","Madison at 4th - In","","39.086978","-84.510936","Transit Authority of Northern Kentucky","","0",""
"100541","0","Fourth at Madison - In","","39.087099","-84.510977","Transit Authority of Northern Kentucky","","0",""
"100542","0","Fourth at Russell - In","","39.086618","-84.514094","Transit Authority of Northern Kentucky","","0",""
"100300","0","Florence Wal-Mart - In","","39.009336","-84.650083","Transit Authority of Northern Kentucky","","0",""
"100785","0","US 42 at Diane - Out","","38.982395","-84.647276","Transit Authority of Northern Kentucky","","0",""
"100545","0","Mall Road at Cayton - In","","38.994031","-84.653233","Transit Authority of Northern Kentucky","","0",""
"100305","0","Meijer Drive at Woodspoint - In","","39.008385","-84.640934","Transit Authority of Northern Kentucky","","0",""
"25245","0","Greenup at Pleasant - In","","39.076212","-84.504846","Transit Authority of Northern Kentucky","","0",""
"25005","0","3475 Valley Plaza - In","","39.033717","-84.535396","Transit Authority of Northern Kentucky","","0",""
"100515","0","Eighth at Russell - In","","39.081695","-84.513072","Transit Authority of Northern Kentucky","","0",""
"25240","0","Greenup at Byrd - In","","39.075089","-84.504542","Transit Authority of Northern Kentucky","","0",""
"25001","0","3470 Valley Plaza - Out","","39.033609","-84.535692","Transit Authority of Northern Kentucky","","0",""
"100750","0","7575 Empire Drive - Out","","38.972912","-84.631325","Transit Authority of Northern Kentucky","","0",""
"100510","0","Pike at Holman - In","","39.080398","-84.515105","Transit Authority of Northern Kentucky","","0",""
"100755","0","7605 Empire - Out","","38.974438","-84.632033","Transit Authority of Northern Kentucky","","0",""
"100770","0","Industrial at Hillcrest - In","","38.986097","-84.635413","Transit Authority of Northern Kentucky","","0",""
"25250","0","Greenup at MLK - In","","39.078113","-84.505344","Transit Authority of Northern Kentucky","","0",""
"25010","0","3441 Valley Plaza - In","","39.035362","-84.53358","Transit Authority of Northern Kentucky","","0",""
"25255","0","Greenup at 11th - In","","39.079085","-84.505571","Transit Authority of Northern Kentucky","","0",""
"100760","0","Empire at Industrial - Out","","38.978495","-84.630369","Transit Authority of Northern Kentucky","","0",""
"100520","0","Eighth at Washington - In","","39.081936","-84.511403","Transit Authority of Northern Kentucky","","0",""
"902","0","Latonia at W 28th - In","","39.049732","-84.515249","Transit Authority of Northern Kentucky","","0",""
"903","0","W 28th at Latonia - Out","","39.049794","-84.515108","Transit Authority of Northern Kentucky","","0",""
"904","0","Latonia at W Southern - Out","","39.049113","-84.514645","Transit Authority of Northern Kentucky","","0",""
"100765","0","Industrial at Carole - Out","","38.982882","-84.633788","Transit Authority of Northern Kentucky","","0",""
"905","0","W Southern at Aberdeen - In","","39.048742","-84.514093","Transit Authority of Northern Kentucky","","0",""
"100525","0","Eighth at Madison - In","","39.082136","-84.510002","Transit Authority of Northern Kentucky","","0",""
"906","0","W Southern at Watson - In","","39.048592","-84.512975","Transit Authority of Northern Kentucky","","0",""
"907","0","W Southern at Watson - Out","","39.048739","-84.513234","Transit Authority of Northern Kentucky","","0",""
"908","0","W Southern at W 32nd - In","","39.048441","-84.512013","Transit Authority of Northern Kentucky","","0",""
"909","0","W Southern at Rosina - Out","","39.048519","-84.511457","Transit Authority of Northern Kentucky","","0",""
"100460","0","Dixie at Ashwood Circle - In","","39.059979","-84.540713","Transit Authority of Northern Kentucky","","0",""
"100220","0","Turfway at Drexel - In","","39.008847","-84.623959","Transit Authority of Northern Kentucky","","0",""
"300915","0","Newport Shopping Center - In","","39.083212","-84.480468","Transit Authority of Northern Kentucky","","0",""
"30145","0","Madison at Sterrett - Out","","39.064095","-84.505228","Transit Authority of Northern Kentucky","","0",""
"30144","0","Dixie at White Pine - Out","","38.952488","-84.62142","Transit Authority of Northern Kentucky","","0",""
"30147","0","Highland at Kyles - Out","","39.051853","-84.534143","Transit Authority of Northern Kentucky","","0",""
"30146","0","Phelps at Welsh - Out","","39.05851","-84.513552","Transit Authority of Northern Kentucky","","0",""
"30141","0","Dudley at Winterbourne - Out","","39.018319","-84.545761","Transit Authority of Northern Kentucky","","0",""
"910","0","W Southern at Clifford - In","","39.048202","-84.510101","Transit Authority of Northern Kentucky","","0",""
"100210","0","Dixie at Kentaboo - Out","","39.006558","-84.614066","Transit Authority of Northern Kentucky","","0",""
"911","0","W Southern at Clifford - Out","","39.04834","-84.510172","Transit Authority of Northern Kentucky","","0",""
"100695","0","Main at Christian - Out","","39.000423","-84.627282","Transit Authority of Northern Kentucky","","0",""
"912","0","W 34th at Beech - Out","","39.048303","-84.508582","Transit Authority of Northern Kentucky","","0",""
"913","0","W Southern at Eugenia - In","","39.048069","-84.509072","Transit Authority of Northern Kentucky","","0",""
"100455","0","Dixie at Fortside - In","","39.056551","-84.545733","Transit Authority of Northern Kentucky","","0",""
"914","0","W 34th at Graff - In","","39.048829","-84.507075","Transit Authority of Northern Kentucky","","0",""
"30149","0","W 34th at Graff - Out","","39.049043","-84.506963","Transit Authority of Northern Kentucky","","0",""
"100215","0","Dixie at Turfway - Out","","39.004612","-84.620036","Transit Authority of Northern Kentucky","","0",""
"915","0","Decoursey at 34th - Out","","39.050586","-84.503241","Transit Authority of Northern Kentucky","","0",""
"30148","0","Decoursey at W 36th - Out","","39.048811","-84.503268","Transit Authority of Northern Kentucky","","0",""
"916","0","W 34th at Caroline - In","","39.04939","-84.505897","Transit Authority of Northern Kentucky","","0",""
"917","0","W 34th at Caroline - Out","","39.049448","-84.506029","Transit Authority of Northern Kentucky","","0",""
"BGRELE","0","Bluegrass at Alexandria In","","39.0752","-84.477016","Transit Authority of Northern Kentucky","","0",""
"918","0","Caroline at W Southern - In","","39.04766","-84.504912","Transit Authority of Northern Kentucky","","0",""
"919","0","W Southern at Caroline - In","","39.047444","-84.504383","Transit Authority of Northern Kentucky","","0",""
"100470","0","Dixie at Hilton - In","","39.063637","-84.535061","Transit Authority of Northern Kentucky","","0",""
"100230","0","Steeple Chase at Turfway - Out","","39.014891","-84.631301","Transit Authority of Northern Kentucky","","0",""
"10305","0","Richwood at US 25 - In","","38.9289","-84.6272","Transit Authority of Northern Kentucky","","0",""
"30133","0","Circleport at Mineola - Out","","39.048319","-84.633732","Transit Authority of Northern Kentucky","","0",""
"30136","0","S Ft Thomas at Linden - In","","39.075351","-84.44703","Transit Authority of Northern Kentucky","","0",""
"10307","0","Dixie at Frogtown - Out","","38.931206","-84.626877","Transit Authority of Northern Kentucky","","0",""
"10306","0","Dixie at E Frogtown - In","","38.931961","-84.626569","Transit Authority of Northern Kentucky","","0",""
"10309","0","Deer Trace at Dixie - Out","","38.939436","-84.624718","Transit Authority of Northern Kentucky","","0",""
"10308","0","Dixie at Maher - In","","38.939337","-84.624549","Transit Authority of Northern Kentucky","","0",""
"920","0","Caroline at Tibbatts - Out","","39.047815","-84.504509","Transit Authority of Northern Kentucky","","0",""
"921","0","Tibbatts at W 38th - Out","","39.046499","-84.50507","Transit Authority of Northern Kentucky","","0",""
"922","0","Rittes Corner - Out","","39.046422","-84.50385","Transit Authority of Northern Kentucky","","0",""
"100465","0","Dixie at Sleepy Hollow - In","","39.063056","-84.538027","Transit Authority of Northern Kentucky","","0",""
"925","0","Decoursey at Church - In","","39.047015","-84.50285","Transit Authority of Northern Kentucky","","0",""
"30138","0","N Ft Thomas at Waterworks - Out","","39.088985","-84.44811","Transit Authority of Northern Kentucky","","0",""
"100225","0","Turfway at Curtis - Out","","39.010879","-84.627672","Transit Authority of Northern Kentucky","","0",""
"10301","0","Dixie at Chambers - Out","","38.888948","-84.608022","Transit Authority of Northern Kentucky","","0",""
"926","0","E Southern at Decoursey - In","","39.04743","-84.502979","Transit Authority of Northern Kentucky","","0",""
"30137","0","Montvale at S Ft Thomas - In","","39.077882","-84.447865","Transit Authority of Northern Kentucky","","0",""
"10300","0","Dixie at Chambers - In","","38.888925","-84.607844","Transit Authority of Northern Kentucky","","0",""
"927","0","Winston at W 39th - Out","","39.045568","-84.50443","Transit Authority of Northern Kentucky","","0",""
"30139","0","N Grand at Highland  - Out","","39.07636","-84.463305","Transit Authority of Northern Kentucky","","0",""
"100680","0","Main at Turfway - In","","39.003819","-84.621924","Transit Authority of Northern Kentucky","","0",""
"100440","0","Dixie at Pleasant Ridge - In","","39.038782","-84.557215","Transit Authority of Northern Kentucky","","0",""
"10514","0","E 3rd at Washington - Out","","39.095527","-84.493384","Transit Authority of Northern Kentucky","","0",""
"8THCEN","0","8th at Central","","39.087036","-84.495712","Transit Authority of Northern Kentucky","","0",""
"10513","0","Newport on Levee - Out","","39.094638","-84.494789","Transit Authority of Northern Kentucky","","0",""
"30122","0","28 Louie B Nunn - In","","39.034942","-84.454992","Transit Authority of Northern Kentucky","","0",""
"30125","0","Lake Side Dorms NKU - Out","","39.027535","-84.452828","Transit Authority of Northern Kentucky","","0",""
"10515","0","Dave Cowens at Park - Out","","39.097859","-84.492861","Transit Authority of Northern Kentucky","","0",""
"30120","0","StElizabeth Covington","","39.07186","-84.517929","Transit Authority of Northern Kentucky","","0",""
"100430","0","Dixie at East Lakeside - In","","39.033623","-84.565918","Transit Authority of Northern Kentucky","","0",""
"935","0","W 43rd at Winston - In","","39.041726","-84.506487","Transit Authority of Northern Kentucky","","0",""
"100675","0","Main at Banklick - In","","39.002218","-84.625775","Transit Authority of Northern Kentucky","","0",""
"936","0","Latonia Kroger - In","","39.039","-84.508","Transit Authority of Northern Kentucky","","0",""
"10510","0","Monmouth at E 9th - In","","39.088171","-84.489925","Transit Authority of Northern Kentucky","","0",""
"30127","0","2101 South Park - Out","","39.08666","-84.706237","Transit Authority of Northern Kentucky","","0",""
"100435","0","Dixie at Orphanage - In","","39.036112","-84.561033","Transit Authority of Northern Kentucky","","0",""
"30126","0","Alexandria at Crossroads - In","","39.004579","-84.424871","Transit Authority of Northern Kentucky","","0",""
"10512","0","Monmouth at E 5th - In","","39.092555","-84.494335","Transit Authority of Northern Kentucky","","0",""
"30129","0","613 Petersburg - In","","39.074054","-84.654591","Transit Authority of Northern Kentucky","","0",""
"10511","0","Monmouth at E 7th - In","","39.090562","-84.492492","Transit Authority of Northern Kentucky","","0",""
"30128","0","1605 Worldwide - In","","39.084611","-84.724839","Transit Authority of Northern Kentucky","","0",""
"100690","0","Main at Banklick - Out","","39.002373","-84.625884","Transit Authority of Northern Kentucky","","0",""
"100450","0","Dixie at Fort Mitchell - In","","39.053282","-84.549734","Transit Authority of Northern Kentucky","","0",""
"30112","0","Elm at Kenner - Out","","39.093543","-84.549007","Transit Authority of Northern Kentucky","","0",""
"10527","0","Riviera at Fairfield - In","","39.100713","-84.487395","Transit Authority of Northern Kentucky","","0",""
"30114","0","Langley at Hargrave - In","","39.06115","-84.70527","Transit Authority of Northern Kentucky","","0",""
"10526","0","Riviera at Fairfield - Out","","39.100628","-84.487515","Transit Authority of Northern Kentucky","","0",""
"10529","0","Landmark at Riviera - Out","","39.09964","-84.485767","Transit Authority of Northern Kentucky","","0",""
"10528","0","Medical Arts - In","","39.1003","-84.4855","Transit Authority of Northern Kentucky","","0",""
"940","0","Winston at Howard Litzler - Out","","39.037717","-84.509016","Transit Authority of Northern Kentucky","","0",""
"942","0","W Grand at Taylor Mill - Out","","39.035691","-84.510862","Transit Authority of Northern Kentucky","","0",""
"943","0","Parkview at Promontory - Out","","39.034056","-84.511501","Transit Authority of Northern Kentucky","","0",""
"30119","0","16th at Monmouth - In","","39.084088","-84.484305","Transit Authority of Northern Kentucky","","0",""
"944","0","Taylor Mill at Mason - Out","","39.027639","-84.511918","Transit Authority of Northern Kentucky","","0",""
"100200","0","Dixie at Sunset - Out","","39.010502","-84.609229","Transit Authority of Northern Kentucky","","0",""
"945","0","Taylor Mill at Mason - In","","39.027916","-84.511662","Transit Authority of Northern Kentucky","","0",""
"100685","0","Main at Turfway - Out","","39.003658","-84.622961","Transit Authority of Northern Kentucky","","0",""
"946","0","Decoursey at E 39th - Out","","39.045205","-84.500382","Transit Authority of Northern Kentucky","","0",""
"8THISA","0","8th at Isabella","","39.086489","-84.497211","Transit Authority of Northern Kentucky","","0",""
"100445","0","Dixie at Highland Cemetery - In","","39.046739","-84.552039","Transit Authority of Northern Kentucky","","0",""
"30115","0","Central at 5th - Out","","39.0897","-84.4981","Transit Authority of Northern Kentucky","","0",""
"948","0","E 41st at Decoursey - Out","","39.042525","-84.499269","Transit Authority of Northern Kentucky","","0",""
"30118","0","5th at Clay Dayton - In","","39.115","-84.4699","Transit Authority of Northern Kentucky","","0",""
"100205","0","Dixie at Cave Run - Out","","39.008591","-84.611607","Transit Authority of Northern Kentucky","","0",""
"30117","0","5th at Bakewell - In","","39.085704","-84.515856","Transit Authority of Northern Kentucky","","0",""
"100260","0","Meijer Drive at Woodspoint - Out","","39.008334","-84.641221","Transit Authority of Northern Kentucky","","0",""
"100020","0","Johnson at Third - In - Out","","39.087932","-84.515858","Transit Authority of Northern Kentucky","","0",""
"100264","0","Ted Bushelman at Doering - Out","","39.01248","-84.646184","Transit Authority of Northern Kentucky","","0",""
"30101","0","Main at 4th Covington - Out","","39.085434","-84.517583","Transit Authority of Northern Kentucky","","0",""
"10734","0","S Park at Sanctuary Place - In","","39.088326","-84.708443","Transit Authority of Northern Kentucky","","0",""
"30100","0","NKU Kenton at Campbell - In","","39.031262","-84.467027","Transit Authority of Northern Kentucky","","0",""
"30103","0","ML Collins at US 27","","39.0279","-84.4521","Transit Authority of Northern Kentucky","","0",""
"10736","0","St Elizabeth Edgewood - Out","","39.0132","-84.5606","Transit Authority of Northern Kentucky","","0",""
"10735","0","NPI on Dudley - Out","","39.026","-84.5362","Transit Authority of Northern Kentucky","","0",""
"950","0","E 42nd at Decoursey - Out","","39.041621","-84.498542","Transit Authority of Northern Kentucky","","0",""
"10737","0","CVG Airport Terminal 3 - Out","","39.055376","-84.65336","Transit Authority of Northern Kentucky","","0",""
"951","0","Decoursey at E 43rd - Out","","39.040604","-84.497634","Transit Authority of Northern Kentucky","","0",""
"952","0","45th at Huntington - Out","","39.0373","-84.4948","Transit Authority of Northern Kentucky","","0",""
"953","0","Decoursey at E 45th - Out","","39.037455","-84.495812","Transit Authority of Northern Kentucky","","0",""
"30108","0","2233 Hanser","","39.056239","-84.522045","Transit Authority of Northern Kentucky","","0",""
"100255","0","99 Spiral - Out","","39.010516","-84.640181","Transit Authority of Northern Kentucky","","0",""
"100015","0","3rd at Main - Covington - In-Out","","39.087603","-84.517865","Transit Authority of Northern Kentucky","","0",""
"716","0","N FortThomas at Miller - Out","","39.07979","-84.44853","Transit Authority of Northern Kentucky","","0",""
"958","0","Huntington at E 41st - In","","39.042991","-84.496504","Transit Authority of Northern Kentucky","","0",""
"30104","0","Ky 18 at Hopeful - In","","39.0045","-84.6545","Transit Authority of Northern Kentucky","","0",""
"959","0","Huntington at E 39th - In","","39.044501","-84.497418","Transit Authority of Northern Kentucky","","0",""
"717","0","Horsebranch at Rhine Vly - Out","","39.017979","-84.555034","Transit Authority of Northern Kentucky","","0",""
"718","0","Horsebranch at Rhine Vly - In","","39.017809","-84.554979","Transit Authority of Northern Kentucky","","0",""
"719","0","Horsebranch at Orphanage - In","","39.02784","-84.544404","Transit Authority of Northern Kentucky","","0",""
"30106","0","I-471 and Southgate","","39.0648","-84.4623","Transit Authority of Northern Kentucky","","0",""
"100270","0","Merchant at Houston - Out","","39.007599","-84.652006","Transit Authority of Northern Kentucky","","0",""
"100030","0","RiverCenter at Madison - In-Out","","39.089502","-84.511848","Transit Authority of Northern Kentucky","","0",""
"100275","0","7563 Mall Road - Out","","39.000809","-84.653592","Transit Authority of Northern Kentucky","","0",""
"10503","0","E 11th at John - In","","39.085792","-84.488225","Transit Authority of Northern Kentucky","","0",""
"30332","0","Crosby at Magellan - In","","39.027385","-84.517586","Transit Authority of Northern Kentucky","","0",""
"10502","0","W 11th at York - In","","39.08493","-84.489807","Transit Authority of Northern Kentucky","","0",""
"10505","0","York at W 7th - In","","39.089988","-84.494256","Transit Authority of Northern Kentucky","","0",""
"30334","0","1600 Worldwide","","39.085949","-84.727372","Transit Authority of Northern Kentucky","","0",""
"960","0","Southern at Church - In","","39.0475","-84.5022","Transit Authority of Northern Kentucky","","0",""
"10504","0","E 11th at John - Out","","39.085524","-84.488459","Transit Authority of Northern Kentucky","","0",""
"30333","0","1600 Worldwide","","39.086266","-84.72746","Transit Authority of Northern Kentucky","","0",""
"961","0","Hanser at Highland - In","","39.0567","-84.5227","Transit Authority of Northern Kentucky","","0",""
"10507","0","York at E 9th - In","","39.087187","-84.491658","Transit Authority of Northern Kentucky","","0",""
"720","0","Horsebranch at Orphanage - Out","","39.027688","-84.544549","Transit Authority of Northern Kentucky","","0",""
"10506","0","York at W 8th - In","","39.08845","-84.492807","Transit Authority of Northern Kentucky","","0",""
"721","0","Turkeyfoot at Dixie - In","","39.032775","-84.567395","Transit Authority of Northern Kentucky","","0",""
"10509","0","Monmouth at E 11th - In","","39.086358","-84.487659","Transit Authority of Northern Kentucky","","0",""
"30330","0","DHL Airport - In","","39.033857","-84.657179","Transit Authority of Northern Kentucky","","0",""
"722","0","Turkeyfoot at Williams - In","","39.031659","-84.56624","Transit Authority of Northern Kentucky","","0",""
"10508","0","York at E 10th - In","","39.086083","-84.490608","Transit Authority of Northern Kentucky","","0",""
"100265","0","Florence Wal-Mart - Out","","39.009301","-84.650578","Transit Authority of Northern Kentucky","","0",""
"723","0","Turkeyfoot at Farmington - Out","","39.030924","-84.566073","Transit Authority of Northern Kentucky","","0",""
"724","0","Elizabeth at Turkeyfoot - Out","","39.029694","-84.566693","Transit Authority of Northern Kentucky","","0",""
"30339","0","Lake Park Drive - In","","39.017753","-84.525794","Transit Authority of Northern Kentucky","","0",""
"725","0","Turkeyfoot at Applewood - In","","39.029176","-84.56682","Transit Authority of Northern Kentucky","","0",""
"100025","0","River Center at IRS - In-Out","","39.088805","-84.514398","Transit Authority of Northern Kentucky","","0",""
"726","0","Turkeyfoot at Holiday - Out","","39.028959","-84.567101","Transit Authority of Northern Kentucky","","0",""
"727","0","Turkeyfoot at Yancey - Out","","39.028357","-84.567649","Transit Authority of Northern Kentucky","","0",""
"30336","0","3500 Langley Hebron - In","","39.06152","-84.71032","Transit Authority of Northern Kentucky","","0",""
"728","0","Turkeyfoot at Yancey - In","","39.0285","-84.567375","Transit Authority of Northern Kentucky","","0",""
"30335","0","Club Chef","","39.019776","-84.524023","Transit Authority of Northern Kentucky","","0",""
"729","0","Fraternity at Turkeyfoot - Out","","39.022492","-84.572616","Transit Authority of Northern Kentucky","","0",""
"10501","0","W 11th at York - Out","","39.084882","-84.489614","Transit Authority of Northern Kentucky","","0",""
"30338","0","Lake Park Drive - Out","","39.017626","-84.525746","Transit Authority of Northern Kentucky","","0",""
"10500","0","W 11th at Columbia - In","","39.084314","-84.490903","Transit Authority of Northern Kentucky","","0",""
"100480","0","Dixie at South Arlington - In","","39.068453","-84.528642","Transit Authority of Northern Kentucky","","0",""
"100240","0","Hansel at Richman - Out","","39.018705","-84.633993","Transit Authority of Northern Kentucky","","0",""
"100000","0","4th at Walnut - Cincinnati","","39.100286","-84.510904","Transit Authority of Northern Kentucky","","0",""
"10709","0","Burlington at Boone Aire - In","","39.008363","-84.664109","Transit Authority of Northern Kentucky","","0",""
"10708","0","Burlington at Zig Zag - In","","39.010611","-84.668292","Transit Authority of Northern Kentucky","","0",""
"10712","0","Service at Burlington - In","","39.002513","-84.65123","Transit Authority of Northern Kentucky","","0",""
"730","0","Turkeyfoot at College Park - Out","","39.02028","-84.573381","Transit Authority of Northern Kentucky","","0",""
"731","0","College Park at Turkeyfoot - In","","39.019883","-84.573223","Transit Authority of Northern Kentucky","","0",""
"732","0","Turkeyfoot at Barnwood - Out","","39.018212","-84.57493","Transit Authority of Northern Kentucky","","0",""
"733","0","Turkeyfoot at Barnwood - In","","39.018134","-84.574664","Transit Authority of Northern Kentucky","","0",""
"734","0","Dudley at Summit Hills CC - Out","","39.013674","-84.574653","Transit Authority of Northern Kentucky","","0",""
"735","0","Dudley at Summit Hills CC - In","","39.013732","-84.57458","Transit Authority of Northern Kentucky","","0",""
"100475","0","Dixie at St. Joseph - In","","39.066132","-84.530562","Transit Authority of Northern Kentucky","","0",""
"736","0","Dudley at 1600 Pensylvania - In","","39.012055","-84.572695","Transit Authority of Northern Kentucky","","0",""
"100235","0","StElizabeth Florence - Out","","39.015767","-84.629483","Transit Authority of Northern Kentucky","","0",""
"737","0","Dudley at Bernard - In","","39.010706","-84.57095","Transit Authority of Northern Kentucky","","0",""
"738","0","Dudley at Bernard - Out","","39.010521","-84.57078","Transit Authority of Northern Kentucky","","0",""
"739","0","Dudley at Lawrence - Out","","39.010236","-84.570242","Transit Authority of Northern Kentucky","","0",""
"10710","0","Burlington at Ridge - In","","39.006556","-84.658869","Transit Authority of Northern Kentucky","","0",""
"100490","0","Pike at Montague - In","","39.075316","-84.523336","Transit Authority of Northern Kentucky","","0",""
"100250","0","4999 Spiral - Out","","39.014209","-84.642299","Transit Authority of Northern Kentucky","","0",""
"100010","0","Bakewell at 3rd - Out","","39.087553","-84.518756","Transit Authority of Northern Kentucky","","0",""
"100495","0","Pike at Hermes - In","","39.076145","-84.522473","Transit Authority of Northern Kentucky","","0",""
"740","0","Dudley at Lawrence - In","","39.010352","-84.570291","Transit Authority of Northern Kentucky","","0",""
"NINPAT","0","9th at Patterson","","39.084549","-84.497162","Transit Authority of Northern Kentucky","","0",""
"741","0","Dudley at Madonna - Out","","39.009644","-84.569142","Transit Authority of Northern Kentucky","","0",""
"742","0","Dudley at Madonna - In","","39.00955","-84.568789","Transit Authority of Northern Kentucky","","0",""
"743","0","Dudley at Lee - Out","","39.008776","-84.567551","Transit Authority of Northern Kentucky","","0",""
"744","0","Dudley at Lee - In","","39.008811","-84.567451","Transit Authority of Northern Kentucky","","0",""
"100485","0","1250 West Pike - In","","39.071928","-84.525867","Transit Authority of Northern Kentucky","","0",""
"746","0","Dudley at Catherine - Out","","39.008282","-84.566195","Transit Authority of Northern Kentucky","","0",""
"747","0","Dudley at Edge Mar - Out","","39.007735","-84.564419","Transit Authority of Northern Kentucky","","0",""
"100245","0","16 Spiral Drive - Out","","39.017679","-84.641452","Transit Authority of Northern Kentucky","","0",""
"748","0","Dudley at Magnolia - Out","","39.006813","-84.562657","Transit Authority of Northern Kentucky","","0",""
"749","0","Dudley at Magnolia - In","","39.006961","-84.562735","Transit Authority of Northern Kentucky","","0",""
"100005","0","Race at 3rd - Out","","39.098507","-84.514014","Transit Authority of Northern Kentucky","","0",""
"100060","0","Pike at Main - Out","","39.078733","-84.516803","Transit Authority of Northern Kentucky","","0",""
"10372","0","Circleport at Olympic - Out","","39.051962","-84.631402","Transit Authority of Northern Kentucky","","0",""
"10130","0","W 3rd at Crescent - In","","39.087524","-84.524085","Transit Authority of Northern Kentucky","","0",""
"100065","0","550 Pike - Out","","39.077506","-84.519137","Transit Authority of Northern Kentucky","","0",""
"10371","0","Olympic at Mineola - In","","39.05292","-84.629574","Transit Authority of Northern Kentucky","","0",""
"750","0","Dudley at Tupman - Out","","39.00619","-84.561785","Transit Authority of Northern Kentucky","","0",""
"751","0","Dudley at Medical Village - Out","","39.006193","-84.559533","Transit Authority of Northern Kentucky","","0",""
"752","0","Dudley at Medical Village - In","","39.006244","-84.559666","Transit Authority of Northern Kentucky","","0",""
"753","0","Dudley at Charter Oak - In","","39.006114","-84.561063","Transit Authority of Northern Kentucky","","0",""
"754","0","Dudley at Lindsey - Out","","39.006598","-84.558191","Transit Authority of Northern Kentucky","","0",""
"755","0","Dudley at Lindsey - In","","39.006645","-84.558318","Transit Authority of Northern Kentucky","","0",""
"756","0","Dudley at Merten - Out","","39.007758","-84.555917","Transit Authority of Northern Kentucky","","0",""
"10132","0","617 W 3rd Covington - In","","39.087543","-84.520597","Transit Authority of Northern Kentucky","","0",""
"757","0","Dudley at Merten - In","","39.007885","-84.556003","Transit Authority of Northern Kentucky","","0",""
"10373","0","Circleport at Mineola - Out","","39.048591","-84.633425","Transit Authority of Northern Kentucky","","0",""
"10131","0","W 3rd at Philadelphia - In","","39.087544","-84.521557","Transit Authority of Northern Kentucky","","0",""
"100299","0","Ted Buschelman at Doering - In","","39.01236","-84.646356","Transit Authority of Northern Kentucky","","0",""
"758","0","Dudley at Brookwood - Out","","39.008371","-84.554591","Transit Authority of Northern Kentucky","","0",""
"759","0","Dudley at Thomas More - In","","39.008529","-84.554836","Transit Authority of Northern Kentucky","","0",""
"518","0","Byrd at Garrard - Out","","39.075536","-84.503133","Transit Authority of Northern Kentucky","","0",""
"10136","0","W 5th at Philadelphia - In","","39.085338","-84.520079","Transit Authority of Northern Kentucky","","0",""
"10135","0","Main at 5th Covington - Out","","39.0853","-84.5176","Transit Authority of Northern Kentucky","","0",""
"519","0","Garrard at E 15th - Out","","39.074515","-84.502894","Transit Authority of Northern Kentucky","","0",""
"10377","0","Cox Rd at Turfway - In","","39.037247","-84.628713","Transit Authority of Northern Kentucky","","0",""
"10137","0","W 5th at Main - In","","39.085315","-84.517603","Transit Authority of Northern Kentucky","","0",""
"100070","0","Pike at Lewis - Out","","39.077166","-84.521642","Transit Authority of Northern Kentucky","","0",""
"100075","0","Pike at Montague - Out","","39.075533","-84.523627","Transit Authority of Northern Kentucky","","0",""
"760","0","Dudley at Prestwicke - Out","","39.010784","-84.553484","Transit Authority of Northern Kentucky","","0",""
"761","0","Belle Meade at Dudley Pike - Out","","39.015054","-84.551172","Transit Authority of Northern Kentucky","","0",""
"762","0","Dudley at Belle Meade - In","","39.015158","-84.551317","Transit Authority of Northern Kentucky","","0",""
"520","0","E 15th at Kendall - Out","","39.074555","-84.501627","Transit Authority of Northern Kentucky","","0",""
"763","0","Fallen Tree at Dudley - In","","39.014325","-84.551915","Transit Authority of Northern Kentucky","","0",""
"521","0","E 15th at Wheeler - Out","","39.074743","-84.500634","Transit Authority of Northern Kentucky","","0",""
"764","0","Dudley at Winterbourne - Out","","39.018118","-84.545846","Transit Authority of Northern Kentucky","","0",""
"765","0","Ky 18 at Hopeful - Out","","39.005","-84.6545","Transit Authority of Northern Kentucky","","0",""
"766","0","Dudley at Winding Trails - Out","","39.018634","-84.544575","Transit Authority of Northern Kentucky","","0",""
"524","0","Eastern at Oliver - Out","","39.073775","-84.498627","Transit Authority of Northern Kentucky","","0",""
"526","0","Eastern at Patton - Out","","39.073048","-84.498645","Transit Authority of Northern Kentucky","","0",""
"528","0","Eastern at E 17th - Out","","39.071609","-84.498652","Transit Authority of Northern Kentucky","","0",""
"100280","0","7663 Mall Road - Out","","38.997951","-84.653756","Transit Authority of Northern Kentucky","","0",""
"100040","0","Scott at Fifth - Out","","39.086226","-84.509218","Transit Authority of Northern Kentucky","","0",""
"100285","0","Florence Mall - Out","","38.996983","-84.651222","Transit Authority of Northern Kentucky","","0",""
"10350","0","Madison at Rogers - Out","","39.054728","-84.508332","Transit Authority of Northern Kentucky","","0",""
"10591","0","4th at Main - In","","39.115332","-84.468043","Transit Authority of Northern Kentucky","","0",""
"ELEPAT","0","11th at Patterson","","39.082113","-84.494906","Transit Authority of Northern Kentucky","","0",""
"10118","0","Johnson at W 3rd - In","","39.087092","-84.515854","Transit Authority of Northern Kentucky","","0",""
"772","0","Buttermilk Park and Ride - Out","","39.049689","-84.574682","Transit Authority of Northern Kentucky","","0",""
"530","0","Eastern at E 18th - Out","","39.070148","-84.498671","Transit Authority of Northern Kentucky","","0",""
"773","0","Royal at Grace - In","","39.047964","-84.570608","Transit Authority of Northern Kentucky","","0",""
"775","0","Royal at Buttermilk - In","","39.044307","-84.572114","Transit Authority of Northern Kentucky","","0",""
"533","0","Eastern at E 19th - Out","","39.069428","-84.498671","Transit Authority of Northern Kentucky","","0",""
"776","0","Royal at Grace - In","","39.047367","-84.57272","Transit Authority of Northern Kentucky","","0",""
"535","0","Eastern at Delmar - Out","","39.068627","-84.498666","Transit Authority of Northern Kentucky","","0",""
"10110","0","Madison at E Robbins - In","","39.07992","-84.509132","Transit Authority of Northern Kentucky","","0",""
"10352","0","Decoursey at Madison - Out","","39.056318","-84.503512","Transit Authority of Northern Kentucky","","0",""
"100035","0","Covington Transit Center","","39.08871","-84.511428","Transit Authority of Northern Kentucky","","0",""
"537","0","Eastern at 20th - Out","","39.067695","-84.498694","Transit Authority of Northern Kentucky","","0",""
"10351","0","Decoursey at Madison - In","","39.05615","-84.50358","Transit Authority of Northern Kentucky","","0",""
"10354","0","James at Winchester - In","","39.057168","-84.501798","Transit Authority of Northern Kentucky","","0",""
"539","0","Eastern at E 21st - Out","","39.066955","-84.4987","Transit Authority of Northern Kentucky","","0",""
"10111","0","Madison at E 8th - In","","39.082091","-84.509743","Transit Authority of Northern Kentucky","","0",""
"10353","0","James at Winchester - In","","39.056974","-84.502097","Transit Authority of Northern Kentucky","","0",""
"10356","0","Madison at Kyles - Out","","39.041376","-84.525932","Transit Authority of Northern Kentucky","","0",""
"10355","0","Alexandria Park and Ride - Out","","38.9482","-84.3943","Transit Authority of Northern Kentucky","","0",""
"10116","0","Johnson at W 3rd - Out","","39.087784","-84.51603","Transit Authority of Northern Kentucky","","0",""
"10115","0","River Center at Washington - Out","","39.088977","-84.514059","Transit Authority of Northern Kentucky","","0",""
"100290","0","7606 Mall Road - In","","39.000552","-84.653259","Transit Authority of Northern Kentucky","","0",""
"100050","0","Pike at Washington - Out","","39.083374","-84.511905","Transit Authority of Northern Kentucky","","0",""
"8THCOL","0","8th at Columbia","","39.087818","-84.494291","Transit Authority of Northern Kentucky","","0",""
"100295","0","Merchants at Doering - In - Out","","39.007653","-84.651925","Transit Authority of Northern Kentucky","","0",""
"100055","0","Pike at Holman - Out","","39.080353","-84.515269","Transit Authority of Northern Kentucky","","0",""
"10360","0","Mineola at Airport Exchange In","","39.057233","-84.62623","Transit Authority of Northern Kentucky","","0",""
"30191","0","E 3rd at Saratoga - In","","39.095176","-84.494344","Transit Authority of Northern Kentucky","","0",""
"30194","0","Fairfield at Taylor - In","","39.106","-84.4838","Transit Authority of Northern Kentucky","","0",""
"30190","0","Birch at Prospect - In","","39.085874","-84.479648","Transit Authority of Northern Kentucky","","0",""
"BGRALX","0","Bluegrass at Alexandria Out","","39.074965","-84.476994","Transit Authority of Northern Kentucky","","0",""
"10129","0","Highway at Western - In","","39.088619","-84.525738","Transit Authority of Northern Kentucky","","0",""
"10128","0","Highway at Western - Out","","39.088691","-84.525594","Transit Authority of Northern Kentucky","","0",""
"30199","0","1342 Jamike - Out","","39.040053","-84.62762","Transit Authority of Northern Kentucky","","0",""
"541","0","Eastern at Wallace - Out","","39.065434","-84.49862","Transit Authority of Northern Kentucky","","0",""
"542","0","Wallace at Sterrett - Out","","39.065437","-84.500305","Transit Authority of Northern Kentucky","","0",""
"300","0","Adela at Elm - In","","39.092185","-84.553041","Transit Authority of Northern Kentucky","","0",""
"301","0","Adela at Oak - Out","","39.091699","-84.552552","Transit Authority of Northern Kentucky","","0",""
"30196","0","Jamike at Cox - Out","","39.03868","-84.629656","Transit Authority of Northern Kentucky","","0",""
"30195","0","4th at Boone - In","","39.115174","-84.46646","Transit Authority of Northern Kentucky","","0",""
"786","0","Dixie at Lone - In","","38.953162","-84.621189","Transit Authority of Northern Kentucky","","0",""
"544","0","Wallace at Greenup - Out","","39.065485","-84.501882","Transit Authority of Northern Kentucky","","0",""
"302","0","Oak St at Adela - In","","39.091563","-84.55238","Transit Authority of Northern Kentucky","","0",""
"787","0","US 25 at Mt Zion - Out","","38.9574","-84.6198","Transit Authority of Northern Kentucky","","0",""
"303","0","Oak at Helen - Out","","39.090184","-84.553787","Transit Authority of Northern Kentucky","","0",""
"30198","0","1347 Jamike - In","","39.040137","-84.627698","Transit Authority of Northern Kentucky","","0",""
"788","0","Beeson at Dixie - Out","","38.954675","-84.621006","Transit Authority of Northern Kentucky","","0",""
"546","0","Greenup at E 20th - In","","39.067656","-84.502925","Transit Authority of Northern Kentucky","","0",""
"304","0","Oak at Helen - In","","39.090028","-84.553772","Transit Authority of Northern Kentucky","","0",""
"100045","0","Scott at Sixth - Out","","39.084703","-84.508844","Transit Authority of Northern Kentucky","","0",""
"547","0","Greenup at E 19th - In","","39.068527","-84.503173","Transit Authority of Northern Kentucky","","0",""
"548","0","Greenup at E 18th - In","","39.069694","-84.503438","Transit Authority of Northern Kentucky","","0",""
"306","0","Oak at Ludford - Out","","39.088708","-84.555152","Transit Authority of Northern Kentucky","","0",""
"549","0","Greenup at E 17th - In","","39.071082","-84.5038","Transit Authority of Northern Kentucky","","0",""
"307","0","Oak at Deverill - Out","","39.087734","-84.556015","Transit Authority of Northern Kentucky","","0",""
"10123","0","W 3rd at Philadelphia - Out","","39.087645","-84.520475","Transit Authority of Northern Kentucky","","0",""
"308","0","Oak at Deverill - In","","39.087392","-84.556128","Transit Authority of Northern Kentucky","","0",""
"10122","0","W 3rd at Crescent - Out","","39.087707","-84.524523","Transit Authority of Northern Kentucky","","0",""
"10125","0","664 W 3rd Covington - Out","","39.087655","-84.522861","Transit Authority of Northern Kentucky","","0",""
"10124","0","650 W 3rd Covington - Out","","39.087649","-84.521785","Transit Authority of Northern Kentucky","","0",""
"10127","0","Crescent at Highway - Out","","39.08851","-84.525196","Transit Authority of Northern Kentucky","","0",""
"10570","0","6th at Walnut - In","","39.110098","-84.478399","Transit Authority of Northern Kentucky","","0",""
"30181","0","Grandview at Beechwood - Out","","39.051201","-84.568566","Transit Authority of Northern Kentucky","","0",""
"550","0","Greenup at E 16th - In","","39.072313","-84.504092","Transit Authority of Northern Kentucky","","0",""
"10338","0","Latonia at Madison - In","","39.051746","-84.516591","Transit Authority of Northern Kentucky","","0",""
"30189","0","Howe at Crosby - Out","","39.0321","-84.514124","Transit Authority of Northern Kentucky","","0",""
"10579","0","6th at Berry - In","","39.113649","-84.471194","Transit Authority of Northern Kentucky","","0",""
"10337","0","Madison at Howard Litzler - Out","","39.046803","-84.520864","Transit Authority of Northern Kentucky","","0",""
"30188","0","Dixie at Richwood - In","","38.918894","-84.624113","Transit Authority of Northern Kentucky","","0",""
"310","0","Oak at Lagoon - In","","39.085713","-84.557643","Transit Authority of Northern Kentucky","","0",""
"10339","0","Latonia at Madison - Out","","39.051434","-84.516503","Transit Authority of Northern Kentucky","","0",""
"554","0","E 13th at Scott - Out","","39.076753","-84.506772","Transit Authority of Northern Kentucky","","0",""
"312","0","Shelby at Pleasant - Out","","39.083974","-84.559324","Transit Authority of Northern Kentucky","","0",""
"555","0","E 13th at Scott - Out","","39.073986","-84.506056","Transit Authority of Northern Kentucky","","0",""
"313","0","Shelby at Main - Out","","39.083378","-84.560166","Transit Authority of Northern Kentucky","","0",""
"30184","0","S Ft Thomas at Chalfonte - Out","","39.076585","-84.447033","Transit Authority of Northern Kentucky","","0",""
"556","0","Scott at E 16th - Out","","39.072078","-84.505566","Transit Authority of Northern Kentucky","","0",""
"314","0","Shelby at Steve Tanner - Out","","39.08285","-84.560961","Transit Authority of Northern Kentucky","","0",""
"557","0","Scott at E 17th - Out","","39.070998","-84.505269","Transit Authority of Northern Kentucky","","0",""
"315","0","Boone at Steve Tanner - In","","39.082391","-84.560096","Transit Authority of Northern Kentucky","","0",""
"30186","0","Oak at Pleasant - In","","39.084576","-84.558521","Transit Authority of Northern Kentucky","","0",""
"558","0","Scott at E 18th - Out","","39.069699","-84.50497","Transit Authority of Northern Kentucky","","0",""
"10572","0","Vine at 6th - Out","","39.110757","-84.477153","Transit Authority of Northern Kentucky","","0",""
"316","0","Boone at Main - In","","39.082679","-84.55967","Transit Authority of Northern Kentucky","","0",""
"10330","0","Alexandria at Neltner - In","","39.026762","-84.448241","Transit Authority of Northern Kentucky","","0",""
"559","0","Scott at E 19th - Out","","39.068557","-84.504665","Transit Authority of Northern Kentucky","","0",""
"10571","0","6th at Walnut - Out","","39.10992","-84.478441","Transit Authority of Northern Kentucky","","0",""
"317","0","Boone at Pleasant - In","","39.08328","-84.558793","Transit Authority of Northern Kentucky","","0",""
"10574","0","6th at Ervin Terrace - Out","","39.111481","-84.475861","Transit Authority of Northern Kentucky","","0",""
"10332","0","Alexandria at Johns Hill - In","","39.031668","-84.451938","Transit Authority of Northern Kentucky","","0",""
"10573","0","6th at Vine - In","","39.110912","-84.477103","Transit Authority of Northern Kentucky","","0",""
"10331","0","US27 at Martha L Collins","","39.029754","-84.450835","Transit Authority of Northern Kentucky","","0",""
"10576","0","6th at McKinney - In","","39.112347","-84.474237","Transit Authority of Northern Kentucky","","0",""
"10575","0","6th at Ervin Terrace - In","","39.111717","-84.475663","Transit Authority of Northern Kentucky","","0",""
"10333","0","US 27 at Nunn Dr - In","","39.035008","-84.453766","Transit Authority of Northern Kentucky","","0",""
"10578","0","6th at Dayton - In","","39.112997","-84.472751","Transit Authority of Northern Kentucky","","0",""
"10336","0","Madison at Howard Litzler - In","","39.046692","-84.520654","Transit Authority of Northern Kentucky","","0",""
"10577","0","6th at Dayton - Out","","39.113003","-84.472513","Transit Authority of Northern Kentucky","","0",""
"10335","0","Madison at Kyles - In","","39.041241","-84.525658","Transit Authority of Northern Kentucky","","0",""
"10581","0","Clay St at 6th Ave - In","","39.113917","-84.470048","Transit Authority of Northern Kentucky","","0",""
"10580","0","6th at Main Dayton - Out","","39.114096","-84.468309","Transit Authority of Northern Kentucky","","0",""
"30170","0","Landmark at Riviera - In","","39.099585","-84.486034","Transit Authority of Northern Kentucky","","0",""
"560","0","Scott at E 20th - Out","","39.067317","-84.504369","Transit Authority of Northern Kentucky","","0",""
"30178","0","Alexandria at Crowell - In","","39.054258","-84.449206","Transit Authority of Northern Kentucky","","0",""
"561","0","E 20th at Scott - In","","39.067284","-84.504177","Transit Authority of Northern Kentucky","","0",""
"10107","0","Madison at W 11th - Out","","39.079027","-84.509019","Transit Authority of Northern Kentucky","","0",""
"10349","0","Madison at Rogers - In","","39.054697","-84.508091","Transit Authority of Northern Kentucky","","0",""
"562","0","Madison at 20th - In","","39.06717","-84.505892","Transit Authority of Northern Kentucky","","0",""
"30177","0","Arno at Clover Ridge - Out","","39.09642","-84.452933","Transit Authority of Northern Kentucky","","0",""
"10106","0","Madison at W 10th - Out","","39.080419","-84.509383","Transit Authority of Northern Kentucky","","0",""
"10348","0","Madison at Birch - In","","39.054458","-84.508876","Transit Authority of Northern Kentucky","","0",""
"10109","0","Madison at E 11th - In","","39.078738","-84.508802","Transit Authority of Northern Kentucky","","0",""
"565","0","Madison at 20th - Out","","39.066727","-84.505882","Transit Authority of Northern Kentucky","","0",""
"30173","0","6th at Clay - In","","39.113764","-84.470109","Transit Authority of Northern Kentucky","","0",""
"30176","0","Washington at E 9th - In","","39.089569","-84.487623","Transit Authority of Northern Kentucky","","0",""
"567","0","Madison at W 19th - Out","","39.068085","-84.50622","Transit Authority of Northern Kentucky","","0",""
"568","0","Madison at E 18th - In","","39.069158","-84.506338","Transit Authority of Northern Kentucky","","0",""
"569","0","Madison at W 18th - Out","","39.069405","-84.506537","Transit Authority of Northern Kentucky","","0",""
"10583","0","5th at Boone - Out","","39.114298","-84.466797","Transit Authority of Northern Kentucky","","0",""
"10341","0","Madison at Alexandria - Out","","39.052512","-84.515322","Transit Authority of Northern Kentucky","","0",""
"10340","0","Madison at Alexandria - In","","39.052381","-84.515312","Transit Authority of Northern Kentucky","","0",""
"10585","0","5th at Benham - Out","","39.113993","-84.463572","Transit Authority of Northern Kentucky","","0",""
"10101","0","Madison at Ziegler - Out","","39.086646","-84.511012","Transit Authority of Northern Kentucky","","0",""
"10343","0","Madison at Ashland - Out","","39.053106","-84.513457","Transit Authority of Northern Kentucky","","0",""
"10342","0","Madison at Rosina - In","","39.052937","-84.513592","Transit Authority of Northern Kentucky","","0",""
"10584","0","5th at Kenton - Out","","39.11416","-84.465206","Transit Authority of Northern Kentucky","","0",""
"10587","0","Clark St at 4th - Out","","39.114657","-84.461715","Transit Authority of Northern Kentucky","","0",""
"10103","0","Madison at 7th - Out","","39.083214","-84.510121","Transit Authority of Northern Kentucky","","0",""
"10345","0","Madison at Rosina - Out","","39.053692","-84.511603","Transit Authority of Northern Kentucky","","0",""
"10586","0","5th at Clark - Out","","39.113879","-84.4621","Transit Authority of Northern Kentucky","","0",""
"10102","0","W 6th at Madison - Out","","39.084695","-84.510518","Transit Authority of Northern Kentucky","","0",""
"10344","0","Madison at Rosina - In","","39.053425","-84.512084","Transit Authority of Northern Kentucky","","0",""
"10589","0","4th at Kenton - In","","39.115051","-84.464852","Transit Authority of Northern Kentucky","","0",""
"10105","0","Madison at W 8th - Out","","39.081852","-84.50976","Transit Authority of Northern Kentucky","","0",""
"10347","0","Madison at Iowa - Out","","39.054278","-84.509747","Transit Authority of Northern Kentucky","","0",""
"10588","0","Benham St at 4th - In","","39.114964","-84.463433","Transit Authority of Northern Kentucky","","0",""
"10346","0","Madison at Iowa - In","","39.05407","-84.510057","Transit Authority of Northern Kentucky","","0",""
"100085","0","Dixie at Arlington - Out","","39.068401","-84.528932","Transit Authority of Northern Kentucky","","0",""
"30161","0","Scott at E 8th - Out","","39.082562","-84.508286","Transit Authority of Northern Kentucky","","0",""
"30160","0","Scott at E 9th - Out","","39.081579","-84.508028","Transit Authority of Northern Kentucky","","0",""
"570","0","Madison at W 16th - Out","","39.07148","-84.507079","Transit Authority of Northern Kentucky","","0",""
"571","0","Madison at E 16th - In","","39.071636","-84.506966","Transit Authority of Northern Kentucky","","0",""
"100080","0","1250 West Pike - Out","","39.072007","-84.525652","Transit Authority of Northern Kentucky","","0",""
"10558","0","Taylor at Fairfield - Out","","39.105641","-84.483994","Transit Authority of Northern Kentucky","","0",""
"572","0","Madison at E 15th - In","","39.073474","-84.507429","Transit Authority of Northern Kentucky","","0",""
"30167","0","Taylor Mill at Lakefield - In","","38.949324","-84.505532","Transit Authority of Northern Kentucky","","0",""
"10316","0","Dixie at Bradshire - In","","38.94736","-84.62162","Transit Authority of Northern Kentucky","","0",""
"573","0","Madison at E 15th - Out","","39.073777","-84.507656","Transit Authority of Northern Kentucky","","0",""
"10315","0","Garden at Dixie - Out","","38.945691","-84.622541","Transit Authority of Northern Kentucky","","0",""
"30166","0","Madison at Hartland - Out","","38.938174","-84.544401","Transit Authority of Northern Kentucky","","0",""
"574","0","Madison at E 13th - In","","39.076388","-84.508192","Transit Authority of Northern Kentucky","","0",""
"30169","0","W 4th at Columbia - Out","","39.091467","-84.497827","Transit Authority of Northern Kentucky","","0",""
"575","0","Madison at E 13th - Out","","39.076774","-84.508446","Transit Authority of Northern Kentucky","","0",""
"10317","0","Bradshire at Dixie - Out","","38.947374","-84.621816","Transit Authority of Northern Kentucky","","0",""
"30168","0","Madison Ct at Madison - Out","","39.057375","-84.501672","Transit Authority of Northern Kentucky","","0",""
"576","0","Madison at E 12th - In","","39.077239","-84.508399","Transit Authority of Northern Kentucky","","0",""
"577","0","Alexandria at Holly Woods - In","","39.052903","-84.447874","Transit Authority of Northern Kentucky","","0",""
"10319","0","US25 at Mt. Zion - Out","","38.95724","-84.6203","Transit Authority of Northern Kentucky","","0",""
"30165","0","Madison at Tuscany - Out","","39.011983","-84.530755","Transit Authority of Northern Kentucky","","0",""
"579","0","Veterans Dr at Alexandria - Out","","39.051337","-84.447331","Transit Authority of Northern Kentucky","","0",""
"30164","0","Holman at Pike - Out","","39.080431","-84.514916","Transit Authority of Northern Kentucky","","0",""
"10310","0","Villa at Dixie Hwy - Out","","38.940898","-84.623622","Transit Authority of Northern Kentucky","","0",""
"10312","0","Dixie at Melinda - In","","38.943687","-84.62252","Transit Authority of Northern Kentucky","","0",""
"10311","0","Dixie at Villa - In","","38.940841","-84.623478","Transit Authority of Northern Kentucky","","0",""
"10314","0","Dixie at Garden - In","","38.945579","-84.622321","Transit Authority of Northern Kentucky","","0",""
"10313","0","Dixie at Melinda - Out","","38.943828","-84.622672","Transit Authority of Northern Kentucky","","0",""
"100095","0","Dixie at St.James - Out","","39.063692","-84.535456","Transit Authority of Northern Kentucky","","0",""
"KENGRI","0","Kentucky at Grandview","","39.07335","-84.489303","Transit Authority of Northern Kentucky","","0",""
"580","0","Alexandria Pike at 3 Mile - In","","39.051437","-84.447094","Transit Authority of Northern Kentucky","","0",""
"100090","0","Dixie at St.Joseph - Out","","39.066321","-84.530641","Transit Authority of Northern Kentucky","","0",""
"581","0","Frank at Main - In","","39.048695","-84.446216","Transit Authority of Northern Kentucky","","0",""
"582","0","Frank at Main - Out","","39.048652","-84.446443","Transit Authority of Northern Kentucky","","0",""
"583","0","Alexandria at Main - Out","","39.047667","-84.446117","Transit Authority of Northern Kentucky","","0",""
"10327","0","Alexandria at Marian - In","","39.022346","-84.44035","Transit Authority of Northern Kentucky","","0",""
"584","0","Maple Pl at Alexandria - In","","39.047698","-84.445887","Transit Authority of Northern Kentucky","","0",""
"10568","0","6th & O Fallon - In","","39.109119","-84.479947","Transit Authority of Northern Kentucky","","0",""
"30155","0","E 5th at Broadway - Out","","39.102057","-84.506605","Transit Authority of Northern Kentucky","","0",""
"10326","0","Downing at Alexandria - In","","39.020174","-84.437846","Transit Authority of Northern Kentucky","","0",""
"100","0","4600 Houston Road - In","","39.024695","-84.622673","Transit Authority of Northern Kentucky","","0",""
"585","0","Alexandria at Rose - Out","","39.046572","-84.445767","Transit Authority of Northern Kentucky","","0",""
"10329","0","Alexandria at Industrial - In","","39.025799","-84.446489","Transit Authority of Northern Kentucky","","0",""
"101","0","Alexandria at Neltner - Out","","39.027438","-84.44928","Transit Authority of Northern Kentucky","","0",""
"586","0","Rose at Alexandria - In","","39.046796","-84.445606","Transit Authority of Northern Kentucky","","0",""
"10328","0","Alexandria at Old Winters - In","","39.024451","-84.443126","Transit Authority of Northern Kentucky","","0",""
"102","0","3710  Furniture Fair  - Out","","39.026293","-84.448092","Transit Authority of Northern Kentucky","","0",""
"30152","0","E Southern at Lincoln - In","","39.047509","-84.500472","Transit Authority of Northern Kentucky","","0",""
"587","0","Alexandria at Steelman - Out","","39.044806","-84.446035","Transit Authority of Northern Kentucky","","0",""
"103","0","Alexandria at Pooles Creek - Out","","39.025","-84.444866","Transit Authority of Northern Kentucky","","0",""
"30151","0","Decoursey at E 44th - Out","","39.039417","-84.496766","Transit Authority of Northern Kentucky","","0",""
"588","0","Alexandria at Steelman - In","","39.04484","-84.4458","Transit Authority of Northern Kentucky","","0",""
"104","0","Alexandria at Old Winters - Out","","39.024011","-84.442975","Transit Authority of Northern Kentucky","","0",""
"589","0","Dale at Alexandria - Out","","39.044205","-84.446956","Transit Authority of Northern Kentucky","","0",""
"30154","0","E 5th at Main Cincinnati - Out","","39.101413","-84.510112","Transit Authority of Northern Kentucky","","0",""
"105","0","Alexandria at Marian - Out","","39.022822","-84.441427","Transit Authority of Northern Kentucky","","0",""
"106","0","US 27 at East Alexandria - Out","","39.0186","-84.436","Transit Authority of Northern Kentucky","","0",""
"107","0","Alexandria at Buning - Out","","39.019651","-84.437641","Transit Authority of Northern Kentucky","","0",""
"108","0","US 27 at E Alexandria - Out","","39.018189","-84.435986","Transit Authority of Northern Kentucky","","0",""
"10321","0","Blossom at Alexandria - In","","39.007381","-84.427636","Transit Authority of Northern Kentucky","","0",""
"109","0","Ripple Creek at Alexandria - Out","","39.017132","-84.434944","Transit Authority of Northern Kentucky","","0",""
"10320","0","Rose Pl at Alexandria - In","","39.006215","-84.42653","Transit Authority of Northern Kentucky","","0",""
"10565","0","Foote at Fairfield - In","","39.107472","-84.482004","Transit Authority of Northern Kentucky","","0",""
"10323","0","Alexandria at Springside - In","","39.012976","-84.432055","Transit Authority of Northern Kentucky","","0",""
"KENGRO","0","Kentucky at Grandview Out","","39.073251","-84.489159","Transit Authority of Northern Kentucky","","0",""
"10322","0","Ripple Creek at Alexandria - In","","39.009762","-84.429614","Transit Authority of Northern Kentucky","","0",""
"10566","0","Fairfield at Ward - Out","","39.107807","-84.481333","Transit Authority of Northern Kentucky","","0",""
"10324","0","Alexandria at Murnan - In","","39.01745","-84.434838","Transit Authority of Northern Kentucky","","0",""
"10093","0","8th at Scott - Out","","39.080443","-84.507724","Transit Authority of Northern Kentucky","","0",""
"10092","0","Scott at E 11th - Out","","39.079308","-84.507445","Transit Authority of Northern Kentucky","","0",""
"300114","0","Newport Park and Ride","","39.082708","-84.481202","Transit Authority of Northern Kentucky","","0",""
"10094","0","Scott at 7th - Out","","39.0838","-84.5086","Transit Authority of Northern Kentucky","","0",""
"25105","0","Decoursey at 31st - In","","39.053214","-84.503151","Transit Authority of Northern Kentucky","","0",""
"590","0","Renshaw at Alexandria - Out","","39.043074","-84.448312","Transit Authority of Northern Kentucky","","0",""
"591","0","Alexandria at Renshaw - In","","39.042835","-84.448241","Transit Authority of Northern Kentucky","","0",""
"592","0","Bramble at Alexandria - Out","","39.041629","-84.448795","Transit Authority of Northern Kentucky","","0",""
"593","0","Alexandria at Blange - In","","39.041094","-84.448733","Transit Authority of Northern Kentucky","","0",""
"594","0","Alexandria at Blange - Out","","39.039841","-84.449276","Transit Authority of Northern Kentucky","","0",""
"110","0","Alexandria at Perkins - Out","","39.015294","-84.433628","Transit Authority of Northern Kentucky","","0",""
"595","0","2345 Alexandria - In","","39.039755","-84.449063","Transit Authority of Northern Kentucky","","0",""
"111","0","Alexandria at Springside - Out","","39.012839","-84.432409","Transit Authority of Northern Kentucky","","0",""
"596","0","Camp at Alexandria - Out","","39.038329","-84.450939","Transit Authority of Northern Kentucky","","0",""
"112","0","Summit at Alexandria - In","","39.010512","-84.430839","Transit Authority of Northern Kentucky","","0",""
"597","0","Alexandria at Camp - In","","39.038145","-84.450896","Transit Authority of Northern Kentucky","","0",""
"113","0","Sturbridge at Alexandria - Out","","39.006645","-84.427431","Transit Authority of Northern Kentucky","","0",""
"598","0","Alexandria at Sunset - In","","39.037064","-84.452818","Transit Authority of Northern Kentucky","","0",""
"114","0","Plaza at Alexandria - Out","","39.004029","-84.424648","Transit Authority of Northern Kentucky","","0",""
"599","0","Alexandria at Sunset - Out","","39.037352","-84.452586","Transit Authority of Northern Kentucky","","0",""
"115","0","Alexandria at Harvest Trl - Out","","38.998858","-84.418424","Transit Authority of Northern Kentucky","","0",""
"116","0","Alexandria at Harvest Trl","","38.996113","-84.41617","Transit Authority of Northern Kentucky","","0",""
"25100","0","Decoursey at 32nd - In","","39.052191","-84.503014","Transit Authority of Northern Kentucky","","0",""
"117","0","Low Gap at Alexandria - Out","","38.991872","-84.409638","Transit Authority of Northern Kentucky","","0",""
"10099","0","River Center at Madison - Out","","39.08967","-84.511541","Transit Authority of Northern Kentucky","","0",""
"118","0","Alexandria at N Viewpoint - Out","","38.986696","-84.404415","Transit Authority of Northern Kentucky","","0",""
"119","0","Alexandria at Enzweiler - Out","","38.978919","-84.393937","Transit Authority of Northern Kentucky","","0",""
"10","0","CVG Centre","","39.041887","-84.664051","Transit Authority of Northern Kentucky","","0",""
"11","0","Ewing at Florence Gov. Center OB","","38.99662","-84.643043","Transit Authority of Northern Kentucky","","0",""
"12","0","Ewing at Florence Gov. Center IB","","38.99706","-84.643347","Transit Authority of Northern Kentucky","","0",""
"13","0","KY 18 at Boone County Library OB","","39.01954","-84.690911","Transit Authority of Northern Kentucky","","0",""
"14","0","3020 Conrad Lane","","39.035064","-84.72825","Transit Authority of Northern Kentucky","","0",""
"15","0","KY 18 at Boone County Library IB","","39.019204","-84.691052","Transit Authority of Northern Kentucky","","0",""
"17","0","Houston Road Park & Ride","","39.027589","-84.618173","Transit Authority of Northern Kentucky","","0",""
"18","0","Houston Road at Hansel","","39.017435","-84.632808","Transit Authority of Northern Kentucky","","0",""
"19","0","Donaldson at Cherry Tree OB","","39.030344","-84.618656","Transit Authority of Northern Kentucky","","0",""
"25115","0","30th at 31st - In","","39.054742","-84.501047","Transit Authority of Northern Kentucky","","0",""
"120","0","Orlando at Alexandria - Out","","38.975955","-84.392788","Transit Authority of Northern Kentucky","","0",""
"121","0","Alexandria at Poplar Ridge - Out","","38.973801","-84.392486","Transit Authority of Northern Kentucky","","0",""
"122","0","Meadow Ct at Alexandria - Out","","38.971853","-84.392443","Transit Authority of Northern Kentucky","","0",""
"123","0","Sunset at Alexandria - Out","","38.969974","-84.392789","Transit Authority of Northern Kentucky","","0",""
"124","0","Lakeside at Alexandria - Out","","38.969159","-84.393143","Transit Authority of Northern Kentucky","","0",""
"125","0","Fairview at Alexandria - Out","","38.968257","-84.393416","Transit Authority of Northern Kentucky","","0",""
"25110","0","30th at Frazier - in","","39.054247","-84.502142","Transit Authority of Northern Kentucky","","0",""
"126","0","Wright at Alexandria - Out","","38.967444","-84.393555","Transit Authority of Northern Kentucky","","0",""
"127","0","Alexandria at Trapp - Out","","38.966361","-84.393265","Transit Authority of Northern Kentucky","","0",""
"128","0","Alexandria at Thatcher - Out","","38.965746","-84.393128","Transit Authority of Northern Kentucky","","0",""
"129","0","Alexandria at Washington - Out","","38.964464","-84.392945","Transit Authority of Northern Kentucky","","0",""
"20","0","Donaldson at Cherry Tree IB","","39.030214","-84.618885","Transit Authority of Northern Kentucky","","0",""
"21","0","Donaldson at Queensway OB","","39.034651","-84.626508","Transit Authority of Northern Kentucky","","0",""
"22","0","Donaldson at Queensway IB","","39.034622","-84.62683","Transit Authority of Northern Kentucky","","0",""
"23","0","Donaldson at Turfway","","39.036126","-84.629891","Transit Authority of Northern Kentucky","","0",""
"24","0","Donaldson at Turfway IB","","39.035821","-84.629607","Transit Authority of Northern Kentucky","","0",""
"25","0","KY 18 at Idlewild Rd. OB","","39.027846","-84.724095","Transit Authority of Northern Kentucky","","0",""
"26","0","Idlewild at KY 18 IB","","39.027898","-84.724302","Transit Authority of Northern Kentucky","","0",""
"27","0","Ewing at Dream In","","38.993372","-84.640265","Transit Authority of Northern Kentucky","","0",""
"28","0","Ewing at Dream Out","","38.993288","-84.639953","Transit Authority of Northern Kentucky","","0",""
"29","0","KY 18 at Ewing In","","39.000711","-84.643017","Transit Authority of Northern Kentucky","","0",""
"130","0","Alexandria at Willow - Out","","38.961008","-84.393022","Transit Authority of Northern Kentucky","","0",""
"131","0","Alexandria at W Main - In","","38.95706","-84.393235","Transit Authority of Northern Kentucky","","0",""
"135","0","318 E 4th St. Cincinnati","","39.100793","-84.507559","Transit Authority of Northern Kentucky","","0",""
"30","0","KY 18 at Ewing Out","","39.000953","-84.642997","Transit Authority of Northern Kentucky","","0",""
"31","0","KY 18 at Veterans Out","","39.022281","-84.707863","Transit Authority of Northern Kentucky","","0",""
"32","0","KY 18 at Veterans In","","39.021696","-84.707029","Transit Authority of Northern Kentucky","","0",""
"10080","0","Fountain Square - In","","39.101","-84.5124","Transit Authority of Northern Kentucky","","0",""
"33","0","Idlewild at Conrad Out","","39.034483","-84.730133","Transit Authority of Northern Kentucky","","0",""
"34","0","Conrad at Idlewild In","","39.034669","-84.730294","Transit Authority of Northern Kentucky","","0",""
"35","0","Donaldson at Point Pleasant Out","","39.055101","-84.643101","Transit Authority of Northern Kentucky","","0",""
"10081","0","Greenup St & E 3rd St","","39.088691","-84.508049","Transit Authority of Northern Kentucky","","0",""
"36","0","Donaldson at Point Pleasant In","","39.055471","-84.642923","Transit Authority of Northern Kentucky","","0",""
"37","0","Donaldson at S. Airfield Out","","39.041681","-84.639208","Transit Authority of Northern Kentucky","","0",""
"38","0","Donaldson at S. Airfield In","","39.041766","-84.639046","Transit Authority of Northern Kentucky","","0",""
"39","0","Houston at Biggs Dr. In-Out","","39.019749","-84.629575","Transit Authority of Northern Kentucky","","0",""
"142","0","Alexandria at Heritage Hill - In","","38.95842","-84.39293","Transit Authority of Northern Kentucky","","0",""
"143","0","Alexandria at Willow - In","","38.960785","-84.392764","Transit Authority of Northern Kentucky","","0",""
"144","0","Alexandria at Washington - In","","38.964331","-84.392664","Transit Authority of Northern Kentucky","","0",""
"145","0","Alexandria at Trapp - In","","38.966514","-84.392995","Transit Authority of Northern Kentucky","","0",""
"146","0","Alexandria at Commercial - In","","38.970521","-84.392268","Transit Authority of Northern Kentucky","","0",""
"147","0","Alexandria at Panorama - In","","38.972734","-84.392154","Transit Authority of Northern Kentucky","","0",""
"148","0","Alexandria at Poplar Ridge - In","","38.974086","-84.392176","Transit Authority of Northern Kentucky","","0",""
"149","0","Village Green Park and Ride - In","","38.9864","-84.4016","Transit Authority of Northern Kentucky","","0",""
"40","0","Petersburg at Victory Place","","39.072333","-84.673233","Transit Authority of Northern Kentucky","","0",""
"42","0","U.S. 25 at Winning Colors","","38.922089","-84.626128","Transit Authority of Northern Kentucky","","0",""
"43","0","U.S. 25 at Shorland","","38.922247","-84.625887","Transit Authority of Northern Kentucky","","0",""
"44","0","2431 Wright Blvd.","","39.056857","-84.709498","Transit Authority of Northern Kentucky","","0",""
"45","0","3720 Langley Dr.","","39.059729","-84.71361","Transit Authority of Northern Kentucky","","0",""
"10291","0","N Main at Bedinger - Out","","38.872486","-84.612837","Transit Authority of Northern Kentucky","","0",""
"46","0","U.S. 25 at Logistics Blvd.","","38.907274","-84.617759","Transit Authority of Northern Kentucky","","0",""
"10290","0","N Main at Bedinger - In","","38.8723","-84.612744","Transit Authority of Northern Kentucky","","0",""
"47","0","U.S. 25 at Logistics IN","","38.907647","-84.617839","Transit Authority of Northern Kentucky","","0",""
"10293","0","N Main at Haley - In","","38.874757","-84.611569","Transit Authority of Northern Kentucky","","0",""
"48","0","Madison at Independence Rd. IN","","38.942073","-84.544458","Transit Authority of Northern Kentucky","","0",""
"10292","0","Fairview at N Main S - In","","38.872857","-84.612458","Transit Authority of Northern Kentucky","","0",""
"10050","0","Turkeyfoot at Dixie - Out","","39.032635","-84.567534","Transit Authority of Northern Kentucky","","0",""
"49","0","4th at Walnut Cincinnati - Out","","39.100331","-84.51065","Transit Authority of Northern Kentucky","","0",""
"10294","0","N Main at Haley - Out","","38.874647","-84.61179","Transit Authority of Northern Kentucky","","0",""
"150","0","E Alexandria at Alexandria - In","","38.982366","-84.397902","Transit Authority of Northern Kentucky","","0",""
"152","0","Alexandria at N Viewpoint - In","","38.987013","-84.404329","Transit Authority of Northern Kentucky","","0",""
"153","0","Backus at Alexandria - In","","38.98925","-84.40622","Transit Authority of Northern Kentucky","","0",""
"154","0","Low Gap at Alexandria - In","","38.992211","-84.409429","Transit Authority of Northern Kentucky","","0",""
"155","0","Harvest Trl at Alexandria - In","","38.998176","-84.417295","Transit Authority of Northern Kentucky","","0",""
"156","0","Alexandria at Harvest Trl - In","","38.999135","-84.418237","Transit Authority of Northern Kentucky","","0",""
"157","0","NKU Business Center - In","","39.0297","-84.4622","Transit Authority of Northern Kentucky","","0",""
"100815","0","BAWAC - In","","38.982917","-84.627056","Transit Authority of Northern Kentucky","","0",""
"158","0","Global Way at N Bend - Out","","39.089617","-84.714228","Transit Authority of Northern Kentucky","","0",""
"159","0","Global-Hebron","","39.089795","-84.719787","Transit Authority of Northern Kentucky","","0",""
"10297","0","Dixie at University Dr- Out","","38.877994","-84.611308","Transit Authority of Northern Kentucky","","0",""
"10296","0","Dixie at Old Nicholson - Out","","38.876096","-84.611217","Transit Authority of Northern Kentucky","","0",""
"10299","0","Dixie at Brookwood - Out","","38.88086","-84.610257","Transit Authority of Northern Kentucky","","0",""
"10298","0","Dixie at University - In","","38.877858","-84.611137","Transit Authority of Northern Kentucky","","0",""
"50","0","Latonia Kroger - Out","","39.041209","-84.508928","Transit Authority of Northern Kentucky","","0",""
"10060","0","Dixie at Edgewood - In","","39.022184","-84.585889","Transit Authority of Northern Kentucky","","0",""
"160","0","Parkwest Industrial Park - Out","","39.089681","-84.719313","Transit Authority of Northern Kentucky","","0",""
"161","0","Parkwest Industrial Park - In","","39.089586","-84.719354","Transit Authority of Northern Kentucky","","0",""
"162","0","2201 Global Way - In","","39.08891","-84.716281","Transit Authority of Northern Kentucky","","0",""
"163","0","Global Way at N Bend - In","","39.08945","-84.71423","Transit Authority of Northern Kentucky","","0",""
"164","0","2030 Meridian - In-Out","","39.088189","-84.702559","Transit Authority of Northern Kentucky","","0",""
"165","0","International at Meridian - Out","","39.086176","-84.702835","Transit Authority of Northern Kentucky","","0",""
"100825","0","Industrial at Empire - Out","","38.979192","-84.630003","Transit Authority of Northern Kentucky","","0",""
"167","0","International at Meridian - In","","39.086351","-84.702763","Transit Authority of Northern Kentucky","","0",""
"168","0","S Park at International Way - In","","39.084546","-84.705463","Transit Authority of Northern Kentucky","","0",""
"169","0","2266 South Park - In","","39.086828","-84.70617","Transit Authority of Northern Kentucky","","0",""
"NINWAS","0","9th at Washington","","39.089772","-84.487732","Transit Authority of Northern Kentucky","","0",""
"62","0","Taylor Mill at Short Mason - In","","39.01829","-84.508408","Transit Authority of Northern Kentucky","","0",""
"100820","0","Industrial at Dixie - In","","38.979647","-84.620981","Transit Authority of Northern Kentucky","","0",""
"63","0","Jefferson at Taylor Mill - Out","","38.994247","-84.498995","Transit Authority of Northern Kentucky","","0",""
"64","0","Taylor Mill at Carol - Out","","38.993371","-84.499644","Transit Authority of Northern Kentucky","","0",""
"65","0","Taylor Mill at Mafred - Out","","38.990439","-84.502608","Transit Authority of Northern Kentucky","","0",""
"66","0","5700 Taylor Mill - Out","","38.988731","-84.503963","Transit Authority of Northern Kentucky","","0",""
"67","0","Highlands at Valley Plaza","","39.037285","-84.534854","Transit Authority of Northern Kentucky","","0",""
"10271","0","Lakefield at Taylor Mill - Out","","38.949362","-84.505729","Transit Authority of Northern Kentucky","","0",""
"10270","0","Taylor Mill at Rusconi - In","","38.957611","-84.503649","Transit Authority of Northern Kentucky","","0",""
"10272","0","Cherokee Park and Ride - In","","38.9447","-84.5088","Transit Authority of Northern Kentucky","","0",""
"170","0","Worldwide at N Bend - Out","","39.08749","-84.713297","Transit Authority of Northern Kentucky","","0",""
"172","0","1190 Worldwide - Out","","39.085556","-84.714901","Transit Authority of Northern Kentucky","","0",""
"174","0","1155 Worldwide - Out","","39.083837","-84.715212","Transit Authority of Northern Kentucky","","0",""
"175","0","1155 Worldwide - In","","39.083794","-84.715066","Transit Authority of Northern Kentucky","","0",""
"176","0","1180 Worldwide - Out","","39.083012","-84.716681","Transit Authority of Northern Kentucky","","0",""
"177","0","1405 Worldwide - In","","39.082893","-84.716642","Transit Authority of Northern Kentucky","","0",""
"178","0","1200 Worldwide - Out","","39.083856","-84.720813","Transit Authority of Northern Kentucky","","0",""
"179","0","1545 Worldwide - In","","39.083821","-84.721237","Transit Authority of Northern Kentucky","","0",""
"NEWPHS","0","Newport High School","","39.096148","-84.4832","Transit Authority of Northern Kentucky","","0",""
"10275","0","S Main at Mary Grubbs - In","","38.859947","-84.609999","Transit Authority of Northern Kentucky","","0",""
"10277","0","S Main at Loreco - In","","38.861272","-84.61021","Transit Authority of Northern Kentucky","","0",""
"10276","0","S Main at Mary Grubbs - Out","","38.859885","-84.610248","Transit Authority of Northern Kentucky","","0",""
"74","0","US 27 at Nunn Dr - Out","","39.034703","-84.454066","Transit Authority of Northern Kentucky","","0",""
"75","0","US 27 at M L Collins - In","","39.0286","-84.4504","Transit Authority of Northern Kentucky","","0",""
"78","0","Martha Layne at Alexandria - In","","39.027153","-84.452995","Transit Authority of Northern Kentucky","","0",""
"10280","0","US 25 at Baptist Church - In","","38.86258","-84.610095","Transit Authority of Northern Kentucky","","0",""
"79","0","49 Martha Layne Collins - Out","","39.02707","-84.452875","Transit Authority of Northern Kentucky","","0",""
"10282","0","Depot at S Main - Out","","38.864609","-84.610545","Transit Authority of Northern Kentucky","","0",""
"10281","0","US 25 at Baptist Church - In","","38.8627","-84.6102","Transit Authority of Northern Kentucky","","0",""
"10284","0","N Main at Alta Vista - Out","","38.86751","-84.61226","Transit Authority of Northern Kentucky","","0",""
"10283","0","N Main at Church - In","","38.866595","-84.61155","Transit Authority of Northern Kentucky","","0",""
"180","0","1600 Worldwide - Out","","39.084701","-84.724662","Transit Authority of Northern Kentucky","","0",""
"181","0","Worldwide Hebron - In","","39.086873","-84.728164","Transit Authority of Northern Kentucky","","0",""
"182","0","2091 North Bend - In","","39.087165","-84.711763","Transit Authority of Northern Kentucky","","0",""
"186","0","North Bend at Litton In-Out","","39.077883","-84.706141","Transit Authority of Northern Kentucky","","0",""
"187","0","Coral at N Bend - In","","39.076054","-84.704904","Transit Authority of Northern Kentucky","","0",""
"188","0","Barbara at N Bend - In","","39.070275","-84.702842","Transit Authority of Northern Kentucky","","0",""
"189","0","Limaburg Park and Ride - In","","39.0642","-84.7002","Transit Authority of Northern Kentucky","","0",""
"100805","0","Mall Road at Cayton - Out","","38.993827","-84.652709","Transit Authority of Northern Kentucky","","0",""
"10286","0","N Main at High School - In","","38.868623","-84.612436","Transit Authority of Northern Kentucky","","0",""
"80","0","Martha Layne at Alexandria - Out","","39.027668","-84.452153","Transit Authority of Northern Kentucky","","0",""
"10285","0","N Main at Alta Vista - In","","38.867309","-84.612026","Transit Authority of Northern Kentucky","","0",""
"81","0","Martha Layne at Highland Mdws-In","","39.025806","-84.455999","Transit Authority of Northern Kentucky","","0",""
"10288","0","N Main at Old Beaver - Out","","38.869945","-84.613281","Transit Authority of Northern Kentucky","","0",""
"82","0","Martha Layne at Highland Mdws-O","","39.025627","-84.455925","Transit Authority of Northern Kentucky","","0",""
"10287","0","High School Ct at N Main - Out","","38.868466","-84.612632","Transit Authority of Northern Kentucky","","0",""
"83","0","Martha Layne at Grey Stable - In","","39.026276","-84.457099","Transit Authority of Northern Kentucky","","0",""
"84","0","Martha Layne at Grey Stable-Out","","39.026326","-84.457455","Transit Authority of Northern Kentucky","","0",""
"10289","0","Locust at N Main - In","","38.869762","-84.613044","Transit Authority of Northern Kentucky","","0",""
"85","0","Martha Layne at Johns Hill - In","","39.02752","-84.459704","Transit Authority of Northern Kentucky","","0",""
"86","0","Johns Hill at Knollwood - Out","","39.027502","-84.460288","Transit Authority of Northern Kentucky","","0",""
"87","0","Johns Hill at University - In","","39.027873","-84.463509","Transit Authority of Northern Kentucky","","0",""
"88","0","Johns Hill at University - Out","","39.027768","-84.463761","Transit Authority of Northern Kentucky","","0",""
"89","0","University at Johns Hill - In","","39.027914","-84.463767","Transit Authority of Northern Kentucky","","0",""
"190","0","Limaburg at Cougar Path - In","","39.0606","-84.700698","Transit Authority of Northern Kentucky","","0",""
"192","0","Petersburg at Limaburg - In","","39.065965","-84.700594","Transit Authority of Northern Kentucky","","0",""
"193","0","Petersburg at Ernst - In","","39.065906","-84.699045","Transit Authority of Northern Kentucky","","0",""
"194","0","Petersburg at Hart - In","","39.06595","-84.696444","Transit Authority of Northern Kentucky","","0",""
"195","0","Petersburg at Merrie - In","","39.066822","-84.691438","Transit Authority of Northern Kentucky","","0",""
"196","0","Petersburg Road Aviation - In","","39.074756","-84.670322","Transit Authority of Northern Kentucky","","0",""
"198","0","Petersburg at Walton - In","","39.076283","-84.667043","Transit Authority of Northern Kentucky","","0",""
"100615","0","Empire at Empire Connector - In","","38.971033","-84.629764","Transit Authority of Northern Kentucky","","0",""
"199","0","Petersburg at Lyndberg - In","","39.076018","-84.660289","Transit Authority of Northern Kentucky","","0",""
"25185","0","Eastern at Delmar - In","","39.068512","-84.498571","Transit Authority of Northern Kentucky","","0",""
"90","0","Johns Hill at Kenton - In","","39.028017","-84.467046","Transit Authority of Northern Kentucky","","0",""
"91","0","Kenton at Johns Hill - Out","","39.028043","-84.467246","Transit Authority of Northern Kentucky","","0",""
"92","0","Kenton at Grant - In","","39.02966","-84.466976","Transit Authority of Northern Kentucky","","0",""
"93","0","Kenton at Grant - Out","","39.029875","-84.467102","Transit Authority of Northern Kentucky","","0",""
"95","0","Campbell at Kenton - In - Out","","39.031318","-84.467123","Transit Authority of Northern Kentucky","","0",""
"100610","0","7575 Empire Drive - In","","38.972881","-84.631462","Transit Authority of Northern Kentucky","","0",""
"96","0","Kenton at Carroll - In","","39.034237","-84.465194","Transit Authority of Northern Kentucky","","0",""
"97","0","Kenton at Carroll - Out","","39.034484","-84.465059","Transit Authority of Northern Kentucky","","0",""
"25180","0","Eastern at 20th - In","","39.067517","-84.498584","Transit Authority of Northern Kentucky","","0",""
"98","0","Alexandria at Marshall - Out","","39.033371","-84.453313","Transit Authority of Northern Kentucky","","0",""
"99","0","Alexandria at Johns Hill - Out","","39.031139","-84.451983","Transit Authority of Northern Kentucky","","0",""
"10701","0","Garrard at 13th - In","","39.077","-84.5035","Transit Authority of Northern Kentucky","","0",""
"100625","0","Empire at Dixon - In","","38.973151","-84.623347","Transit Authority of Northern Kentucky","","0",""
"10700","0","Alexandria at Crowell - Out","","39.054616","-84.449473","Transit Authority of Northern Kentucky","","0",""
"10702","0","Burlington at Service - Out","","39.002907","-84.651168","Transit Authority of Northern Kentucky","","0",""
"25195","0","Eastern at 18th - In","","39.069996","-84.498561","Transit Authority of Northern Kentucky","","0",""
"10705","0","Burlington at Zig Zag - Out","","39.010882","-84.668073","Transit Authority of Northern Kentucky","","0",""
"10704","0","Burlington at Greenview - Out","","39.006876","-84.659057","Transit Authority of Northern Kentucky","","0",""
"10707","0","Kenner at Rustic - In","","39.016299","-84.678449","Transit Authority of Northern Kentucky","","0",""
"10706","0","Burlington at Centennial - Out","","39.014888","-84.675135","Transit Authority of Northern Kentucky","","0",""
"100620","0","7455 Empire - In","","38.970861","-84.628887","Transit Authority of Northern Kentucky","","0",""
"25190","0","Eastern at 19th - In","","39.06928","-84.498583","Transit Authority of Northern Kentucky","","0",""
"100830","0","Madison @ Kuhrs","","39.050871","-84.518314","Transit Authority of Northern Kentucky","","0",""
"100605","0","7605 Empire - In","","38.974377","-84.632186","Transit Authority of Northern Kentucky","","0",""
"1401","0","Sycamore at Fifth","","39.102239","-84.508319","Transit Authority of Northern Kentucky","","0",""
"25175","0","Eastern at 21st - In","","39.06681","-84.498588","Transit Authority of Northern Kentucky","","0",""
"100600","0","Empire at Industrial - In","","38.978545","-84.630521","Transit Authority of Northern Kentucky","","0",""
"1407","0","Turfway at Dixie - Out","","39.004642","-84.62158","Transit Authority of Northern Kentucky","","0",""
"100660","0","7607 Dixie Highway - In","","38.992441","-84.624024","Transit Authority of Northern Kentucky","","0",""
"25140","0","Madison at 24th - In","","39.062956","-84.504805","Transit Authority of Northern Kentucky","","0",""
"25145","0","Madison at Sterrett - In","","39.064323","-84.505112","Transit Authority of Northern Kentucky","","0",""
"100650","0","Dixie at Pinehurst - In","","38.986145","-84.621445","Transit Authority of Northern Kentucky","","0",""
"100410","0","Crestview Town Center - In","","39.026105","-84.581499","Transit Authority of Northern Kentucky","","0",""
"100655","0","7791 Dixie Highway - In","","38.989844","-84.622685","Transit Authority of Northern Kentucky","","0",""
"100415","0","Dixie at Whitehouse Dr - In","","39.02992","-84.574057","Transit Authority of Northern Kentucky","","0",""
"100670","0","Main at Christian - In","","39.000608","-84.627177","Transit Authority of Northern Kentucky","","0",""
"25150","0","Madison at Wallace - In","","39.06548","-84.505402","Transit Authority of Northern Kentucky","","0",""
"25155","0","20th at Scott - In","","39.06714","-84.504373","Transit Authority of Northern Kentucky","","0",""
"100420","0","Dixie at Geisen - In","","39.031632","-84.570443","Transit Authority of Northern Kentucky","","0",""
"100665","0","Dixie at Shenandoah - In","","38.996469","-84.625665","Transit Authority of Northern Kentucky","","0",""
"100425","0","Dixie at Turkeyfoot - In","","39.032687","-84.568081","Transit Authority of Northern Kentucky","","0",""
"25125","0","Madison at 26th - In","","39.060336","-84.503277","Transit Authority of Northern Kentucky","","0",""
"NINCOL","0","9th at Columbia","","39.086777","-84.49313","Transit Authority of Northern Kentucky","","0",""
"25120","0","James at Eastern - In","","39.057616","-84.50017","Transit Authority of Northern Kentucky","","0",""
"100630","0","Empire at Dixie - In","","38.976174","-84.618594","Transit Authority of Northern Kentucky","","0",""
"100635","0","Dixie at Industrial - In","","38.980799","-84.619817","Transit Authority of Northern Kentucky","","0",""
"25135","0","Madison at Catalpa - In","","39.062402","-84.504653","Transit Authority of Northern Kentucky","","0",""
"25130","0","25 at Madison - In","","39.060943","-84.503958","Transit Authority of Northern Kentucky","","0",""
"100640","0","Dixie at New Buffington - In","","38.981928","-84.620216","Transit Authority of Northern Kentucky","","0",""
"100400","0","Dixie at Kenton Lands - In","","39.021019","-84.588768","Transit Authority of Northern Kentucky","","0",""
"100645","0","7975 Dixie Highway - In","","38.984014","-84.620794","Transit Authority of Northern Kentucky","","0",""
